$GPGLL,3540.3017,N,13943.3385,E,061836.000,A,A*55
$GPGSA,A,3,24,07,17,28,,,,,,,,,6.5,6.4,1.0*3F
$GPGSV,3,1,11,24,62,314,32,20,62,057,,17,60,323,33,07,45,314,24*7E
$GPGSV,3,2,11,28,45,219,25,11,31,070,,04,25,273,,23,23,127,18*73
$GPGSV,3,3,11,01,09,044,10,13,08,158,12,19,03,122,15*4B
$GPRMC,061836.000,A,3540.3017,N,13943.3385,E,1.18,105.69,120106,,,A*65
$GPVTG,105.69,T,,M,1.18,N,2.2,K,A*0E
$GPGGA,061837.000,3540.3017,N,13943.3386,E,1,04,6.4,-34.2,M,39.4,M,,0000*42
$GPGLL,3540.3017,N,13943.3386,E,061837.000,A,A*57
$GPGSA,A,3,24,07,17,28,,,,,,,,,6.5,6.4,1.0*3F
$GPGSV,3,1,11,24,62,314,32,20,62,057,,17,60,323,33,07,45,314,24*7E
$GPGSV,3,2,11,28,45,219,25,11,31,070,,04,25,273,,23,23,127,17*7C
$GPGSV,3,3,11,01,09,044,11,13,08,158,11,19,03,122,*4D
$GPRMC,061837.000,A,3540.3017,N,13943.3386,E,0.64,96.74,120106,,,A*5A
$GPVTG,96.74,T,,M,0.64,N,1.2,K,A*30
$GPGGA,061838.000,3540.3017,N,13943.3387,E,1,04,6.4,-34.6,M,39.4,M,,0000*48
$GPGLL,3540.3017,N,13943.3387,E,061838.000,A,A*59
$GPGSA,A,3,24,07,17,28,,,,,,,,,6.5,6.4,1.0*3F
$GPGSV,3,1,11,24,62,314,32,20,62,057,,17,60,323,33,07,45,314,24*7E
$GPGSV,3,2,11,28,45,219,25,11,31,070,,04,25,273,,23,23,127,18*73
$GPGSV,3,3,11,01,09,044,11,13,08,158,12,19,03,122,15*4A
$GPRMC,061838.000,A,3540.3017,N,13943.3387,E,0.57,100.59,120106,,,A*65
$GPVTG,100.59,T,,M,0.57,N,1.0,K,A*03
$GPGGA,061839.000,3540.3016,N,13943.3389,E,1,04,6.4,-34.6,M,39.4,M,,0000*46
$GPGLL,3540.3016,N,13943.3389,E,061839.000,A,A*57
$GPGSA,A,3,24,07,17,28,,,,,,,,,6.5,6.4,1.0*3F
$GPGSV,3,1,11,24,62,314,32,20,62,057,,17,60,323,33,07,45,314,25*7F
$GPGSV,3,2,11,28,45,219,25,11,31,070,,04,25,273,,23,23,127,18*73
$GPGSV,3,3,11,01,09,044,,13,08,158,12,19,03,122,16*49
$GPRMC,061839.000,A,3540.3016,N,13943.3389,E,0.09,36.69,120106,,,A*57
$GPVTG,36.69,T,,M,0.09,N,0.2,K,A*3C
$GPGGA,061840.000,3540.3015,N,13943.3395,E,1,04,6.4,-34.5,M,39.4,M,,0000*45
$GPGLL,3540.3015,N,13943.3395,E,061840.000,A,A*57
$GPGSA,A,3,24,07,17,28,,,,,,,,,6.5,6.4,1.0*3F
$GPGSV,3,1,11,24,62,314,32,20,62,057,,17,60,323,33,07,45,314,25*7F
$GPGSV,3,2,11,28,45,219,26,11,31,070,,04,25,273,,23,23,127,17*7F
$GPGSV,3,3,11,01,09,044,,13,08,158,12,19,03,122,16*49
$GPRMC,061840.000,A,3540.3015,N,13943.3395,E,0.26,116.46,120106,,,A*64
$GPVTG,116.46,T,,M,0.26,N,0.5,K,A*08
$GPGGA,061841.000,3540.3014,N,13943.3401,E,1,04,6.4,-34.5,M,39.4,M,,0000*4F
$GPGLL,3540.3014,N,13943.3401,E,061841.000,A,A*5D
$GPGSA,A,3,24,07,17,28,,,,,,,,,6.5,6.4,1.0*3F
$GPGSV,3,1,11,24,62,314,32,20,62,057,,17,60,323,33,07,45,314,25*7F
$GPGSV,3,2,11,28,45,219,26,11,31,070,,04,25,273,,23,23,127,17*7F
$GPGSV,3,3,11,01,09,044,,13,08,158,12,19,03,122,16*49
$GPRMC,061841.000,A,3540.3014,N,13943.3401,E,0.37,108.47,120106,,,A*60
$GPVTG,108.47,T,,M,0.37,N,0.7,K,A*04
$GPGGA,061842.000,3540.3013,N,13943.3406,E,1,04,6.4,-34.5,M,39.4,M,,0000*4C
$GPGLL,3540.3013,N,13943.3406,E,061842.000,A,A*5E
$GPGSA,A,3,24,07,17,28,,,,,,,,,6.5,6.4,1.0*3F
$GPGSV,3,1,11,24,62,314,32,20,62,057,,17,60,323,32,07,45,314,25*7E
$GPGSV,3,2,11,28,45,219,26,11,31,070,,04,25,273,,23,23,127,17*7F
$GPGSV,3,3,11,01,09,044,10,13,08,158,13,19,03,122,16*49
$GPRMC,061842.000,A,3540.3013,N,13943.3406,E,0.41,106.52,120106,,,A*68
$GPVTG,106.52,T,,M,0.41,N,0.8,K,A*00
$GPGGA,061843.000,3540.3013,N,13943.3411,E,1,04,6.4,-34.5,M,39.4,M,,0000*4B
$GPGLL,3540.3013,N,13943.3411,E,061843.000,A,A*59
$GPGSA,A,3,24,07,17,28,,,,,,,,,6.5,6.4,1.0*3F
$GPGSV,3,1,11,24,62,314,32,20,62,057,,17,60,323,32,07,45,314,25*7E
$GPGSV,3,2,11,28,45,219,26,11,31,070,,04,25,273,,23,23,127,17*7F
$GPGSV,3,3,11,01,09,044,11,13,08,158,13,19,03,122,*4F
$GPRMC,061843.000,A,3540.3013,N,13943.3411,E,0.47,104.83,120106,,,A*67
$GPVTG,104.83,T,,M,0.47,N,0.9,K,A*09
$GPGGA,061844.000,3540.3012,N,13943.3416,E,1,04,6.4,-34.6,M,39.4,M,,0000*49
$GPGLL,3540.3012,N,13943.3416,E,061844.000,A,A*58
$GPGSA,A,3,24,07,17,28,,,,,,,,,6.5,6.4,1.0*3F
$GPGSV,3,1,11,24,62,314,32,20,62,057,,17,60,323,32,07,45,314,25*7E
$GPGSV,3,2,11,28,45,219,26,11,31,070,,04,25,273,,23,23,127,17*7F
$GPGSV,3,3,11,01,09,044,13,13,08,158,13,19,03,122,17*4B
$GPRMC,061844.000,A,3540.3012,N,13943.3416,E,0.47,111.02,120106,,,A*6B
$GPVTG,111.02,T,,M,0.47,N,0.9,K,A*04
$GPGGA,061845.000,3540.3012,N,13943.3420,E,1,04,6.4,-34.7,M,39.4,M,,0000*4C
$GPGLL,3540.3012,N,13943.3420,E,061845.000,A,A*5C
$GPGSA,A,3,24,07,17,28,,,,,,,,,6.5,6.4,1.0*3F
$GPGSV,3,1,11,24,62,314,32,20,62,057,,17,60,323,32,07,45,314,25*7E
$GPGSV,3,2,11,28,45,219,26,11,31,070,,04,25,273,,23,23,127,18*70
$GPGSV,3,3,11,01,09,044,12,13,08,158,13,19,03,122,15*48
$GPRMC,061845.000,A,3540.3012,N,13943.3420,E,0.46,104.74,120106,,,A*6B
$GPVTG,104.74,T,,M,0.46,N,0.8,K,A*01
$GPGGA,061846.000,3540.3012,N,13943.3425,E,1,04,6.4,-34.8,M,39.4,M,,0000*45
$GPGLL,3540.3012,N,13943.3425,E,061846.000,A,A*5A
$GPGSA,A,3,24,07,17,28,,,,,,,,,6.5,6.4,1.0*3F
$GPGSV,3,1,11,24,62,314,32,20,62,057,,17,60,323,32,07,45,314,25*7E
$GPGSV,3,2,11,28,45,219,26,11,31,070,,04,25,273,,23,23,127,18*70
$GPGSV,3,3,11,01,09,044,12,13,08,158,14,19,03,122,15*4F
$GPRMC,061846.000,A,3540.3012,N,13943.3425,E,0.43,107.95,120106,,,A*64
$GPVTG,107.95,T,,M,0.43,N,0.8,K,A*08
$GPGGA,061847.000,3540.3012,N,13943.3431,E,1,04,6.4,-34.9,M,39.4,M,,0000*40
$GPGLL,3540.3012,N,13943.3431,E,061847.000,A,A*5E
$GPGSA,A,3,24,07,17,28,,,,,,,,,6.5,6.4,1.0*3F
$GPGSV,3,1,11,24,62,315,32,20,61,056,,17,60,323,32,07,45,314,25*7D
$GPGSV,3,2,11,28,45,219,27,11,31,071,,04,26,273,,23,23,127,18*73
$GPGSV,3,3,11,01,09,044,12,13,08,158,14,19,03,122,*4B
$GPRMC,061847.000,A,3540.3012,N,13943.3431,E,0.43,103.25,120106,,,A*6F
$GPVTG,103.25,T,,M,0.43,N,0.8,K,A*07
$GPGGA,061848.000,3540.3011,N,13943.3436,E,1,04,6.4,-35.0,M,39.4,M,,0000*43
$GPGLL,3540.3011,N,13943.3436,E,061848.000,A,A*55
$GPGSA,A,3,24,07,17,28,,,,,,,,,6.5,6.4,1.0*3F
$GPGSV,3,1,11,24,62,315,32,20,61,056,,17,60,323,31,07,45,314,26*7D
$GPGSV,3,2,11,28,45,219,27,11,31,071,,04,26,273,16,23,23,127,18*74
$GPGSV,3,3,11,01,09,044,,13,08,158,14,19,03,122,17*4E
$GPRMC,061848.000,A,3540.3011,N,13943.3436,E,0.44,105.08,120106,,,A*6A
$GPVTG,105.08,T,,M,0.44,N,0.8,K,A*09
$GPGGA,061849.000,3540.3011,N,13943.3441,E,1,04,6.4,-35.1,M,39.4,M,,0000*43
$GPGLL,3540.3011,N,13943.3441,E,061849.000,A,A*54
$GPGSA,A,3,24,07,17,28,,,,,,,,,6.5,6.4,1.0*3F
$GPGSV,3,1,11,24,62,315,32,20,61,056,,17,60,323,31,07,45,314,26*7D
$GPGSV,3,2,11,28,45,219,27,11,31,071,,04,26,273,16,23,23,127,18*74
$GPGSV,3,3,11,01,09,044,12,13,08,158,14,19,03,122,17*4D
$GPRMC,061849.000,A,3540.3011,N,13943.3441,E,0.43,105.99,120106,,,A*64
$GPVTG,105.99,T,,M,0.43,N,0.8,K,A*06
$GPGGA,061850.000,3540.3012,N,13943.3440,E,1,04,6.4,-35.3,M,39.4,M,,0000*4B
$GPGLL,3540.3012,N,13943.3440,E,061850.000,A,A*5E
$GPGSA,A,3,24,07,17,28,,,,,,,,,6.5,6.4,1.0*3F
$GPGSV,3,1,11,24,62,315,32,20,61,056,,17,60,323,31,07,45,314,26*7D
$GPGSV,3,2,11,28,45,219,27,11,31,071,,04,26,273,15,23,23,127,18*77
$GPGSV,3,3,11,01,09,044,07,13,08,158,15,19,03,122,17*48
$GPRMC,061850.000,A,3540.3012,N,13943.3440,E,0.34,253.83,120106,,,A*65
$GPVTG,253.83,T,,M,0.34,N,0.6,K,A*03
$GPGGA,061851.000,3540.3012,N,13943.3441,E,1,04,6.4,-35.6,M,39.4,M,,0000*4E
$GPGLL,3540.3012,N,13943.3441,E,061851.000,A,A*5E
$GPGSA,A,3,24,07,17,28,,,,,,,,,6.4,6.4,1.0*3E
$GPGSV,3,1,11,24,62,315,32,20,61,056,,17,60,323,31,07,45,314,26*7D
$GPGSV,3,2,11,28,45,219,27,11,31,071,,04,26,273,14,23,23,127,18*76
$GPGSV,3,3,11,01,09,044,10,13,08,158,16,19,03,122,17*4D
$GPRMC,061851.000,A,3540.3012,N,13943.3441,E,0.16,121.68,120106,,,A*66
$GPVTG,121.68,T,,M,0.16,N,0.3,K,A*05
$GPGGA,061852.000,3540.3013,N,13943.3442,E,1,04,6.4,-35.9,M,39.4,M,,0000*40
$GPGLL,3540.3013,N,13943.3442,E,061852.000,A,A*5F
$GPGSA,A,3,24,07,17,28,,,,,,,,,6.4,6.4,1.0*3E
$GPGSV,3,1,11,24,62,315,32,20,61,056,,17,60,323,31,07,45,314,27*7C
$GPGSV,3,2,11,28,45,219,27,11,31,071,09,04,26,273,13,23,23,127,18*78
$GPGSV,3,3,11,01,09,044,13,13,08,158,16,19,03,122,18*41
$GPRMC,061852.000,A,3540.3013,N,13943.3442,E,0.50,96.46,120106,,,A*54
$GPVTG,96.46,T,,M,0.50,N,0.9,K,A*3C
$GPGGA,061853.000,3540.3014,N,13943.3442,E,1,04,6.4,-36.2,M,39.4,M,,0000*4E
$GPGLL,3540.3014,N,13943.3442,E,061853.000,A,A*59
$GPGSA,A,3,24,07,17,28,,,,,,,,,6.4,6.4,1.0*3E
$GPGSV,3,1,11,24,62,315,27,20,61,056,,17,60,323,31,07,45,314,27*78
$GPGSV,3,2,11,28,45,219,27,11,31,071,07,04,26,273,14,23,23,127,19*70
$GPGSV,3,3,11,01,09,044,14,13,08,158,17,19,03,122,*4E
$GPRMC,061853.000,A,3540.3014,N,13943.3442,E,0.52,100.66,120106,,,A*6C
$GPVTG,100.66,T,,M,0.52,N,1.0,K,A*0A
$GPGGA,061854.000,3540.3015,N,13943.3439,E,1,04,6.4,-36.5,M,39.4,M,,0000*43
$GPGLL,3540.3015,N,13943.3439,E,061854.000,A,A*53
$GPGSA,A,3,24,07,17,28,,,,,,,,,6.4,6.4,1.0*3E
$GPGSV,3,1,11,24,62,315,28,20,61,056,,17,60,323,32,07,45,314,27*74
$GPGSV,3,2,11,28,45,219,27,11,31,071,,04,26,273,13,23,23,127,19*70
$GPGSV,3,3,11,01,09,044,14,13,08,158,17,19,03,122,21*4D
$GPRMC,061854.000,A,3540.3015,N,13943.3439,E,0.22,105.54,120106,,,A*65
$GPVTG,105.54,T,,M,0.22,N,0.4,K,A*0C
$GPGGA,061855.000,3540.3016,N,13943.3437,E,1,04,6.4,-36.9,M,39.4,M,,0000*43
$GPGLL,3540.3016,N,13943.3437,E,061855.000,A,A*5F
$GPGSA,A,3,24,07,17,28,,,,,,,,,6.4,6.4,1.0*3E
$GPGSV,3,1,11,24,62,315,28,20,61,056,,17,60,323,32,07,45,314,27*74
$GPGSV,3,2,11,28,45,219,27,11,31,071,,04,26,273,13,23,23,127,19*70
$GPGSV,3,3,11,01,09,044,,13,08,158,18,19,03,122,21*47
$GPRMC,061855.000,A,3540.3016,N,13943.3437,E,0.17,112.52,120106,,,A*6F
$GPVTG,112.52,T,,M,0.17,N,0.3,K,A*0D
$GPGGA,061856.000,3540.3017,N,13943.3433,E,1,04,6.4,-37.3,M,39.4,M,,0000*4E
$GPGLL,3540.3017,N,13943.3433,E,061856.000,A,A*59
$GPGSA,A,3,24,07,17,28,,,,,,,,,6.4,6.4,1.0*3E
$GPGSV,3,1,11,24,62,315,29,20,61,056,,17,60,323,32,07,45,314,28*7A
$GPGSV,3,2,11,28,45,219,28,11,31,071,,04,26,273,13,23,23,127,19*7F
$GPGSV,3,3,11,01,09,044,15,13,08,158,18,19,03,122,19*48
$GPRMC,061856.000,A,3540.3017,N,13943.3433,E,0.10,109.98,120106,,,A*62
$GPVTG,109.98,T,,M,0.10,N,0.2,K,A*07
$GPGGA,061857.000,3540.3018,N,13943.3430,E,1,04,6.4,-37.7,M,39.4,M,,0000*47
$GPGLL,3540.3018,N,13943.3430,E,061857.000,A,A*54
$GPGSA,A,3,24,07,17,28,,,,,,,,,6.4,6.4,1.0*3E
$GPGSV,3,1,11,24,62,315,29,20,61,056,,17,60,323,32,07,45,314,28*7A
$GPGSV,3,2,11,28,45,219,27,11,31,071,,04,26,273,12,23,23,127,19*71
$GPGSV,3,3,11,01,09,044,15,13,08,158,18,19,03,122,20*42
$GPRMC,061857.000,A,3540.3018,N,13943.3430,E,0.04,213.07,120106,,,A*64
$GPVTG,213.07,T,,M,0.04,N,0.1,K,A*0F
$GPGGA,061858.000,3540.3020,N,13943.3425,E,1,04,6.4,-38.2,M,39.4,M,,0000*4D
$GPGLL,3540.3020,N,13943.3425,E,061858.000,A,A*54
$GPGSA,A,3,24,07,17,28,,,,,,,,,6.4,6.4,1.0*3E
$GPGSV,3,1,11,24,62,315,29,20,61,056,,17,60,323,32,07,45,314,28*7A
$GPGSV,3,2,11,28,45,219,27,11,31,071,,04,26,273,,23,23,127,19*72
$GPGSV,3,3,11,01,09,044,16,13,08,158,18,19,03,122,20*41
$GPRMC,061858.000,A,3540.3020,N,13943.3425,E,0.10,248.00,120106,,,A*68
$GPVTG,248.00,T,,M,0.10,N,0.2,K,A*00
$GPGGA,061859.000,3540.3021,N,13943.3421,E,1,04,6.4,-38.6,M,39.4,M,,0000*4D
$GPGLL,3540.3021,N,13943.3421,E,061859.000,A,A*50
$GPGSA,A,3,24,07,17,28,,,,,,,,,6.4,6.4,1.0*3E
$GPGSV,3,1,11,24,62,315,29,20,61,056,,17,60,323,32,07,45,314,28*7A
$GPGSV,3,2,11,28,45,219,27,11,31,071,,04,26,273,,23,23,127,19*72
$GPGSV,3,3,11,01,09,044,16,13,08,158,19,19,03,122,20*40
$GPRMC,061859.000,A,3540.3021,N,13943.3421,E,0.11,234.23,120106,,,A*67
$GPVTG,234.23,T,,M,0.11,N,0.2,K,A*0B
$GPGGA,061900.000,3540.3021,N,13943.3416,E,1,04,6.4,-39.1,M,39.4,M,,0000*42
$GPGLL,3540.3021,N,13943.3416,E,061900.000,A,A*59
$GPGSA,A,3,24,07,17,28,,,,,,,,,6.4,6.4,1.0*3E
$GPGSV,3,1,11,24,62,315,29,20,61,056,,17,60,323,33,07,45,314,28*7B
$GPGSV,3,2,11,28,45,219,27,11,31,071,,04,26,273,,23,23,127,18*73
$GPGSV,3,3,11,01,09,044,16,13,08,158,19,19,03,122,20*40
$GPRMC,061900.000,A,3540.3021,N,13943.3416,E,0.19,250.69,120106,,,A*6A
$GPVTG,250.69,T,,M,0.19,N,0.3,K,A*0E
$GPGGA,061901.000,3540.3022,N,13943.3411,E,1,04,6.4,-39.5,M,39.4,M,,0000*43
$GPGLL,3540.3022,N,13943.3411,E,061901.000,A,A*5C
$GPGSA,A,3,24,07,17,28,,,,,,,,,6.4,6.4,1.0*3E
$GPGSV,3,1,11,24,62,315,29,20,61,056,,17,60,323,33,07,45,314,29*7A
$GPGSV,3,2,11,28,45,219,27,11,31,071,17,04,26,273,10,23,23,127,18*74
$GPGSV,3,3,11,01,09,044,,13,08,158,19,19,03,122,*45
$GPRMC,061901.000,A,3540.3022,N,13943.3411,E,0.19,258.01,120106,,,A*69
$GPVTG,258.01,T,,M,0.19,N,0.4,K,A*0F
$GPGGA,061902.000,3540.3023,N,13943.3406,E,1,04,6.4,-39.9,M,39.4,M,,0000*4B
$GPGLL,3540.3023,N,13943.3406,E,061902.000,A,A*58
$GPGSA,A,3,24,07,17,28,,,,,,,,,6.4,6.4,1.0*3E
$GPGSV,3,1,11,24,62,315,29,20,61,056,,17,60,323,33,07,45,314,29*7A
$GPGSV,3,2,11,28,45,219,26,11,31,071,14,04,26,273,07,23,23,127,18*70
$GPGSV,3,3,11,01,09,044,20,13,08,158,19,19,03,122,*47
$GPRMC,061902.000,A,3540.3023,N,13943.3406,E,0.23,247.54,120106,,,A*6A
$GPVTG,247.54,T,,M,0.23,N,0.4,K,A*08
$GPGGA,061903.000,3540.3024,N,13943.3399,E,1,04,6.4,-40.4,M,39.4,M,,0000*4F
$GPGLL,3540.3024,N,13943.3399,E,061903.000,A,A*5F
$GPGSA,A,3,24,07,17,28,,,,,,,,,6.4,6.4,1.0*3E
$GPGSV,3,1,11,24,62,315,29,20,61,056,07,17,60,323,33,07,45,314,29*7D
$GPGSV,3,2,11,28,45,219,26,11,31,071,11,04,26,273,07,23,23,127,18*75
$GPGSV,3,3,11,01,09,044,12,13,08,158,19,19,03,122,17*40
$GPRMC,061903.000,A,3540.3024,N,13943.3399,E,0.29,273.03,120106,,,A*62
$GPVTG,273.03,T,,M,0.29,N,0.5,K,A*06
$GPGGA,061904.000,3540.3025,N,13943.3392,E,1,04,6.4,-40.8,M,39.4,M,,0000*4E
$GPGLL,3540.3025,N,13943.3392,E,061904.000,A,A*52
$GPGSA,A,3,24,07,17,28,,,,,,,,,6.4,6.4,1.0*3E
$GPGSV,3,1,11,24,62,315,29,20,61,056,,17,60,323,34,07,45,314,28*7C
$GPGSV,3,2,11,28,45,219,26,11,31,071,,04,26,273,,23,23,127,18*72
$GPGSV,3,3,11,01,09,044,17,13,08,158,19,19,03,122,19*4B
$GPRMC,061904.000,A,3540.3025,N,13943.3392,E,0.36,259.15,120106,,,A*6E
$GPVTG,259.15,T,,M,0.36,N,0.7,K,A*05
$GPGGA,061905.000,3540.3026,N,13943.3383,E,1,04,6.4,-41.3,M,39.4,M,,0000*46
$GPGLL,3540.3026,N,13943.3383,E,061905.000,A,A*50
$GPGSA,A,3,24,07,17,28,,,,,,,,,6.4,6.4,1.0*3E
$GPGSV,3,1,11,24,62,315,29,20,61,056,,17,60,323,34,07,45,314,28*7C
$GPGSV,3,2,11,28,45,219,26,11,31,071,,04,26,273,10,23,23,127,18*73
$GPGSV,3,3,11,01,09,044,14,13,08,158,19,19,03,122,18*49
$GPRMC,061905.000,A,3540.3026,N,13943.3383,E,0.41,266.32,120106,,,A*65
$GPVTG,266.32,T,,M,0.41,N,0.8,K,A*03
$GPGGA,061906.000,3540.3027,N,13943.3375,E,1,04,6.4,-41.7,M,39.4,M,,0000*49
$GPGLL,3540.3027,N,13943.3375,E,061906.000,A,A*5B
$GPGSA,A,3,24,07,17,28,,,,,,,,,6.4,6.4,1.0*3E
$GPGSV,3,1,11,24,62,315,29,20,61,056,,17,60,323,34,07,45,314,28*7C
$GPGSV,3,2,11,28,45,219,26,11,31,071,,04,26,273,09,23,23,127,19*7A
$GPGSV,3,3,11,01,09,044,15,13,08,158,19,19,03,122,18*48
$GPRMC,061906.000,A,3540.3027,N,13943.3375,E,0.50,270.26,120106,,,A*6C
$GPVTG,270.26,T,,M,0.50,N,0.9,K,A*00
$GPGGA,061907.000,3540.3028,N,13943.3367,E,1,04,6.4,-42.2,M,39.4,M,,0000*42
$GPGLL,3540.3028,N,13943.3367,E,061907.000,A,A*56
$GPGSA,A,3,24,07,17,28,,,,,,,,,6.4,6.4,1.0*3E
$GPGSV,3,1,11,24,62,315,29,20,61,056,,17,60,323,34,07,45,314,28*7C
$GPGSV,3,2,11,28,45,219,26,11,31,071,,04,26,273,,23,23,127,19*73
$GPGSV,3,3,11,01,09,044,15,13,08,158,19,19,03,122,19*49
$GPRMC,061907.000,A,3540.3028,N,13943.3367,E,0.56,267.59,120106,,,A*69
$GPVTG,267.59,T,,M,0.56,N,1.0,K,A*00
$GPGGA,061908.000,3540.3029,N,13943.3359,E,1,04,6.4,-42.6,M,39.4,M,,0000*45
$GPGLL,3540.3029,N,13943.3359,E,061908.000,A,A*55
$GPGSA,A,3,24,07,17,28,,,,,,,,,6.4,6.4,1.0*3E
$GPGSV,3,1,11,24,62,315,29,20,61,056,,17,60,323,34,07,45,314,27*73
$GPGSV,3,2,11,28,45,219,26,11,31,071,10,04,26,273,,23,23,127,19*72
$GPGSV,3,3,11,01,09,044,16,13,08,158,19,19,03,122,19*4A
$GPRMC,061908.000,A,3540.3029,N,13943.3359,E,0.57,269.43,120106,,,A*6E
$GPVTG,269.43,T,,M,0.57,N,1.1,K,A*05
$GPGGA,061909.000,3540.3030,N,13943.3350,E,1,04,6.4,-43.0,M,39.4,M,,0000*42
$GPGLL,3540.3030,N,13943.3350,E,061909.000,A,A*55
$GPGSA,A,3,24,07,17,28,,,,,,,,,6.4,6.4,1.0*3E
$GPGSV,3,1,11,24,62,315,29,20,61,056,,17,60,323,34,07,45,314,27*73
$GPGSV,3,2,11,28,45,219,26,11,31,071,,04,26,273,,23,23,127,20*79
$GPGSV,3,3,11,01,09,044,,13,08,158,19,19,03,122,*45
$GPRMC,061909.000,A,3540.3030,N,13943.3350,E,0.64,273.45,120106,,,A*63
$GPVTG,273.45,T,,M,0.64,N,1.2,K,A*0B
$GPGGA,061910.000,3540.3030,N,13943.3343,E,1,04,6.3,-43.4,M,39.4,M,,0000*4B
$GPGLL,3540.3030,N,13943.3343,E,061910.000,A,A*5F
$GPGSA,A,3,24,07,17,28,,,,,,,,,6.4,6.3,1.0*39
$GPGSV,3,1,11,24,62,315,29,20,61,056,,17,60,323,34,07,45,314,27*73
$GPGSV,3,2,11,28,45,219,26,11,31,071,,04,26,273,,23,23,127,20*79
$GPGSV,3,3,11,01,09,044,14,13,08,158,19,19,03,122,*40
$GPRMC,061910.000,A,3540.3030,N,13943.3343,E,0.55,263.28,120106,,,A*61
$GPVTG,263.28,T,,M,0.55,N,1.0,K,A*01
$GPGGA,061911.000,3540.3031,N,13943.3334,E,1,04,6.3,-43.8,M,39.4,M,,0000*47
$GPGLL,3540.3031,N,13943.3334,E,061911.000,A,A*5F
$GPGSA,A,3,24,07,17,28,,,,,,,,,6.4,6.3,1.0*39
$GPGSV,3,1,11,24,62,315,29,20,61,056,,17,60,323,35,07,45,314,27*72
$GPGSV,3,2,11,28,45,219,26,11,31,071,,04,26,273,,23,23,127,21*78
$GPGSV,3,3,11,01,09,044,15,13,08,158,19,19,03,122,*41
$GPRMC,061911.000,A,3540.3031,N,13943.3334,E,0.62,270.29,120106,,,A*66
$GPVTG,270.29,T,,M,0.62,N,1.1,K,A*07
$GPGGA,061912.000,3540.3032,N,13943.3330,E,1,04,6.3,-44.1,M,39.4,M,,0000*4D
$GPGLL,3540.3032,N,13943.3330,E,061912.000,A,A*5B
$GPGSA,A,3,24,07,17,28,,,,,,,,,6.4,6.3,1.0*39
$GPGSV,3,1,11,24,62,315,29,20,61,056,,17,60,323,35,07,45,314,21*74
$GPGSV,3,2,11,28,45,219,26,11,31,071,,04,26,273,,23,23,127,21*78
$GPGSV,3,3,11,01,09,044,15,13,08,158,19,19,03,122,*41
$GPRMC,061912.000,A,3540.3032,N,13943.3330,E,0.19,206.14,120106,,,A*61
$GPVTG,206.14,T,,M,0.19,N,0.4,K,A*00
$GPGGA,061913.000,3540.3034,N,13943.3313,E,1,04,6.3,-44.4,M,39.4,M,,0000*4E
$GPGLL,3540.3034,N,13943.3313,E,061913.000,A,A*5D
$GPGSA,A,3,24,07,17,28,,,,,,,,,6.4,6.3,1.0*39
$GPGSV,3,1,11,24,62,315,29,20,61,056,,17,60,323,35,07,45,314,18*7E
$GPGSV,3,2,11,28,45,219,26,11,31,071,,04,26,273,,23,23,127,21*78
$GPGSV,3,3,11,01,09,044,16,13,08,158,19,19,03,122,*42
$GPRMC,061913.000,A,3540.3034,N,13943.3313,E,0.72,274.96,120106,,,A*65
$GPVTG,274.96,T,,M,0.72,N,1.3,K,A*04
$GPGGA,061914.000,3540.3038,N,13943.3281,E,1,04,6.3,-44.7,M,39.4,M,,0000*4C
$GPGLL,3540.3038,N,13943.3281,E,061914.000,A,A*5C
$GPGSA,A,3,24,07,17,28,,,,,,,,,6.4,6.3,1.0*39
$GPGSV,3,1,11,24,62,315,29,20,61,056,,17,60,323,35,07,45,314,19*7F
$GPGSV,3,2,11,28,45,219,26,11,31,071,,04,26,273,,23,23,127,21*78
$GPGSV,3,3,11,01,09,044,16,13,08,158,19,19,03,122,18*4B
$GPRMC,061914.000,A,3540.3038,N,13943.3281,E,2.78,279.69,120106,,,A*61
$GPVTG,279.69,T,,M,2.78,N,5.1,K,A*07
$GPGGA,061915.000,3540.3042,N,13943.3252,E,1,04,6.3,-45.0,M,39.4,M,,0000*48
$GPGLL,3540.3042,N,13943.3252,E,061915.000,A,A*5E
$GPGSA,A,3,24,07,17,28,,,,,,,,,6.4,6.3,1.0*39
$GPGSV,3,1,11,24,62,315,29,20,61,056,,17,60,323,35,07,45,314,19*7F
$GPGSV,3,2,11,28,45,219,26,11,31,071,,04,26,273,,23,23,127,21*78
$GPGSV,3,3,11,01,09,044,15,13,08,158,19,19,03,122,18*48
$GPRMC,061915.000,A,3540.3042,N,13943.3252,E,4.35,280.60,120106,,,A*63
$GPVTG,280.60,T,,M,4.35,N,8.0,K,A*0B
$GPGGA,061916.000,3540.3047,N,13943.3211,E,1,04,6.3,-45.3,M,39.4,M,,0000*4A
$GPGLL,3540.3047,N,13943.3211,E,061916.000,A,A*5F
$GPGSA,A,3,24,07,17,28,,,,,,,,,6.4,6.3,1.0*39
$GPGSV,3,1,11,24,62,315,29,20,61,056,,17,60,323,35,07,45,314,20*75
$GPGSV,3,2,11,28,45,219,26,11,31,071,,04,26,273,,23,23,127,21*78
$GPGSV,3,3,11,01,09,044,,13,08,158,19,19,03,122,18*4C
$GPRMC,061916.000,A,3540.3047,N,13943.3211,E,6.26,280.40,120106,,,A*60
$GPVTG,280.40,T,,M,6.26,N,11.6,K,A*37
$GPGGA,061917.000,3540.3051,N,13943.3187,E,1,04,6.3,-45.5,M,39.4,M,,0000*46
$GPGLL,3540.3051,N,13943.3187,E,061917.000,A,A*55
$GPGSA,A,3,24,07,17,28,,,,,,,,,6.4,6.3,1.0*39
$GPGSV,3,1,11,24,62,315,29,20,61,056,10,17,60,323,33,07,45,314,21*73
$GPGSV,3,2,11,28,45,219,26,11,31,071,,04,26,273,,23,23,127,21*78
$GPGSV,3,3,11,01,09,044,16,13,08,158,19,19,03,122,19*4A
$GPRMC,061917.000,A,3540.3051,N,13943.3187,E,5.34,276.28,120106,,,A*6D
$GPVTG,276.28,T,,M,5.34,N,9.9,K,A*06
$GPGGA,061918.000,3540.3050,N,13943.3191,E,1,04,6.3,-45.7,M,39.4,M,,0000*4D
$GPGLL,3540.3050,N,13943.3191,E,061918.000,A,A*5C
$GPGSA,A,3,24,07,17,28,,,,,,,,,6.4,6.3,1.0*39
$GPGSV,3,1,11,24,62,315,29,20,61,056,,17,60,323,26,07,45,314,25*72
$GPGSV,3,2,11,28,45,219,26,11,31,071,,04,26,273,,23,23,127,21*78
$GPGSV,3,3,11,01,09,044,15,13,08,158,19,19,03,122,19*49
$GPRMC,061918.000,A,3540.3050,N,13943.3191,E,3.84,273.86,120106,,,A*68
$GPVTG,273.86,T,,M,3.84,N,7.1,K,A*0C
$GPGGA,061919.000,3540.3046,N,13943.3220,E,1,04,6.3,-45.8,M,39.4,M,,0000*4D
$GPGLL,3540.3046,N,13943.3220,E,061919.000,A,A*53
$GPGSA,A,3,24,07,17,28,,,,,,,,,6.4,6.3,1.0*39
$GPGSV,3,1,11,24,62,315,28,20,61,056,13,17,60,323,28,07,45,314,24*7E
$GPGSV,3,2,11,28,45,219,26,11,31,071,10,04,26,273,,23,23,127,20*78
$GPGSV,3,3,11,01,09,044,17,13,08,158,18,19,03,122,*42
$GPRMC,061919.000,A,3540.3046,N,13943.3220,E,2.06,272.53,120106,,,A*65
$GPVTG,272.53,T,,M,2.06,N,3.8,K,A*03
$GPGGA,061920.000,3540.3048,N,13943.3212,E,1,04,6.3,-45.9,M,39.4,M,,0000*49
$GPGLL,3540.3048,N,13943.3212,E,061920.000,A,A*56
$GPGSA,A,3,24,07,17,28,,,,,,,,,6.4,6.3,1.0*39
$GPGSV,3,1,11,24,62,315,28,20,61,056,07,17,60,323,30,07,45,314,24*72
$GPGSV,3,2,11,28,45,219,26,11,31,071,07,04,26,273,,23,23,127,20*7E
$GPGSV,3,3,11,01,09,044,,13,08,158,18,19,03,122,*44
$GPRMC,061920.000,A,3540.3048,N,13943.3212,E,2.79,283.71,120106,,,A*66
$GPVTG,283.71,T,,M,2.79,N,5.2,K,A*09
$GPGGA,061921.000,3540.3050,N,13943.3204,E,1,04,6.3,-46.1,M,39.4,M,,0000*4D
$GPGLL,3540.3050,N,13943.3204,E,061921.000,A,A*59
$GPGSA,A,3,24,07,17,28,,,,,,,,,6.4,6.3,1.0*39
$GPGSV,3,1,11,24,62,315,28,20,61,056,,17,60,323,36,07,45,314,24*73
$GPGSV,3,2,11,28,45,219,25,11,31,071,07,04,26,273,,23,23,127,16*78
$GPGSV,3,3,11,01,09,044,18,13,08,158,18,19,03,122,20*4F
$GPRMC,061921.000,A,3540.3050,N,13943.3204,E,2.28,276.91,120106,,,A*69
$GPVTG,276.91,T,,M,2.28,N,4.2,K,A*08
$GPGGA,061922.000,3540.3049,N,13943.3201,E,1,04,6.3,-46.2,M,39.4,M,,0000*40
$GPGLL,3540.3049,N,13943.3201,E,061922.000,A,A*57
$GPGSA,A,3,24,07,17,28,,,,,,,,,6.4,6.3,1.0*39
$GPGSV,3,1,11,24,62,315,28,20,61,056,,17,60,323,36,07,45,314,24*73
$GPGSV,3,2,11,28,45,219,21,11,31,071,,04,26,273,,23,23,127,13*7E
$GPGSV,3,3,11,01,09,044,15,13,08,158,18,19,03,122,19*48
$GPRMC,061922.000,A,3540.3049,N,13943.3201,E,2.29,283.38,120106,,,A*6F
$GPVTG,283.38,T,,M,2.29,N,4.2,K,A*00
$GPGGA,061923.000,3540.3046,N,13943.3203,E,1,04,6.3,-46.2,M,39.4,M,,0000*4C
$GPGLL,3540.3046,N,13943.3203,E,061923.000,A,A*5B
$GPGSA,A,3,24,07,17,28,,,,,,,,,6.4,6.3,1.0*39
$GPGSV,3,1,11,24,62,315,28,20,61,056,,17,60,323,35,07,45,314,24*70
$GPGSV,3,2,11,28,45,219,21,11,31,071,,04,26,273,,23,23,127,15*78
$GPGSV,3,3,11,01,09,044,15,13,08,158,18,19,03,122,19*48
$GPRMC,061923.000,A,3540.3046,N,13943.3203,E,2.11,267.36,120106,,,A*6C
$GPVTG,267.36,T,,M,2.11,N,3.9,K,A*03
$GPGGA,061924.000,3540.3045,N,13943.3210,E,1,04,6.3,-46.3,M,39.4,M,,0000*4B
$GPGLL,3540.3045,N,13943.3210,E,061924.000,A,A*5D
$GPGSA,A,3,24,07,17,28,,,,,,,,,6.4,6.3,1.0*39
$GPGSV,3,1,11,24,62,315,28,20,61,056,,17,60,323,35,07,45,314,24*70
$GPGSV,3,2,11,28,45,219,21,11,31,071,,04,26,273,,23,23,127,14*79
$GPGSV,3,3,11,01,09,044,15,13,08,158,17,19,03,122,19*47
$GPRMC,061924.000,A,3540.3045,N,13943.3210,E,1.60,317.69,120106,,,A*63
$GPVTG,317.69,T,,M,1.60,N,3.0,K,A*03
$GPGGA,061925.000,3540.3045,N,13943.3213,E,1,04,6.3,-46.3,M,39.4,M,,0000*49
$GPGLL,3540.3045,N,13943.3213,E,061925.000,A,A*5F
$GPGSA,A,3,24,07,17,28,,,,,,,,,6.4,6.3,1.0*39
$GPGSV,3,1,11,24,62,315,28,20,61,056,,17,60,323,35,07,45,314,24*70
$GPGSV,3,2,11,28,45,219,21,11,31,071,,04,26,273,,23,23,127,14*79
$GPGSV,3,3,11,01,09,044,14,13,08,158,17,19,03,122,19*46
$GPRMC,061925.000,A,3540.3045,N,13943.3213,E,2.03,350.31,120106,,,A*69
$GPVTG,350.31,T,,M,2.03,N,3.8,K,A*03
$GPGGA,061926.000,3540.3044,N,13943.3229,E,1,04,6.3,-46.3,M,39.4,M,,0000*42
$GPGLL,3540.3044,N,13943.3229,E,061926.000,A,A*54
$GPGSA,A,3,24,07,17,28,,,,,,,,,6.4,6.3,1.0*39
$GPGSV,3,1,11,24,62,315,28,20,61,056,,17,60,323,35,07,45,314,24*70
$GPGSV,3,2,11,28,45,219,21,11,31,071,,04,26,273,,23,23,127,14*79
$GPGSV,3,3,11,01,09,044,15,13,08,158,17,19,03,122,20*4D
$GPRMC,061926.000,A,3540.3044,N,13943.3229,E,1.74,19.02,120106,,,A*5F
$GPVTG,19.02,T,,M,1.74,N,3.2,K,A*34
$GPGGA,061927.000,3540.3044,N,13943.3212,E,1,04,6.3,-46.6,M,39.4,M,,0000*4E
$GPGLL,3540.3044,N,13943.3212,E,061927.000,A,A*5D
$GPGSA,A,3,24,07,17,28,,,,,,,,,6.4,6.3,1.0*39
$GPGSV,3,1,11,24,62,315,28,20,61,056,,17,60,323,34,07,45,314,24*71
$GPGSV,3,2,11,28,45,219,20,11,31,071,,04,26,273,,23,23,127,14*78
$GPGSV,3,3,11,01,09,044,,13,08,158,17,19,03,122,20*49
$GPRMC,061927.000,A,3540.3044,N,13943.3212,E,0.43,303.90,120106,,,A*60
$GPVTG,303.90,T,,M,0.43,N,0.8,K,A*0B
$GPGGA,061928.000,3540.3045,N,13943.3198,E,1,04,6.3,-46.9,M,39.4,M,,0000*4E
$GPGLL,3540.3045,N,13943.3198,E,061928.000,A,A*52
$GPGSA,A,3,24,07,17,28,,,,,,,,,6.4,6.3,1.0*39
$GPGSV,3,1,11,24,62,315,28,20,61,056,,17,60,323,34,07,45,314,24*71
$GPGSV,3,2,11,28,45,219,20,11,31,071,,04,26,273,,23,23,127,15*79
$GPGSV,3,3,11,01,09,044,13,13,08,158,17,19,03,122,18*40
$GPRMC,061928.000,A,3540.3045,N,13943.3198,E,0.59,19.04,120106,,,A*51
$GPVTG,19.04,T,,M,0.59,N,1.1,K,A*3D
$GPGGA,061929.000,3540.3049,N,13943.3180,E,1,04,6.3,-47.1,M,39.4,M,,0000*43
$GPGLL,3540.3049,N,13943.3180,E,061929.000,A,A*56
$GPGSA,A,3,24,07,17,28,,,,,,,,,6.4,6.3,1.0*39
$GPGSV,3,1,11,24,62,315,28,20,61,056,,17,60,323,35,07,45,314,24*70
$GPGSV,3,2,11,28,45,219,20,11,31,071,,04,26,273,,23,23,127,15*79
$GPGSV,3,3,11,01,09,044,15,13,08,158,17,19,03,122,18*46
$GPRMC,061929.000,A,3540.3049,N,13943.3180,E,1.15,324.77,120106,,,A*65
$GPVTG,324.77,T,,M,1.15,N,2.1,K,A*0E
$GPGGA,061930.000,3540.3050,N,13943.3158,E,1,04,6.3,-47.4,M,39.4,M,,0000*43
$GPGLL,3540.3050,N,13943.3158,E,061930.000,A,A*53
$GPGSA,A,3,24,07,17,28,,,,,,,,,6.4,6.3,1.0*39
$GPGSV,3,1,11,24,62,315,28,20,61,056,11,17,60,323,35,07,45,314,24*70
$GPGSV,3,2,11,28,45,219,20,11,31,071,,04,26,273,,23,23,127,15*79
$GPGSV,3,3,11,01,09,044,16,13,08,158,17,19,03,122,19*44
$GPRMC,061930.000,A,3540.3050,N,13943.3158,E,2.06,283.17,120106,,,A*6B
$GPVTG,283.17,T,,M,2.06,N,3.8,K,A*0D
$GPGGA,061931.000,3540.3051,N,13943.3161,E,1,04,6.3,-47.5,M,39.4,M,,0000*48
$GPGLL,3540.3051,N,13943.3161,E,061931.000,A,A*59
$GPGSA,A,3,24,07,17,28,,,,,,,,,6.4,6.3,1.0*39
$GPGSV,3,1,11,24,62,315,28,20,61,056,08,17,60,323,31,07,45,314,24*7C
$GPGSV,3,2,11,28,45,219,20,11,31,071,,04,26,273,,23,23,127,16*7A
$GPGSV,3,3,11,01,09,044,17,13,08,158,17,19,03,122,20*4F
$GPRMC,061931.000,A,3540.3051,N,13943.3161,E,1.08,317.53,120106,,,A*60
$GPVTG,317.53,T,,M,1.08,N,2.0,K,A*05
$GPGGA,061932.000,3540.3052,N,13943.3164,E,1,04,6.3,-46.8,M,39.4,M,,0000*41
$GPGLL,3540.3052,N,13943.3164,E,061932.000,A,A*5C
$GPGSA,A,3,24,07,17,28,,,,,,,,,6.4,6.3,1.0*39
$GPGSV,3,1,11,24,62,315,28,20,61,056,07,17,60,323,23,07,45,314,24*70
$GPGSV,3,2,11,28,45,219,27,11,31,071,,04,26,273,,23,23,127,17*7C
$GPGSV,3,3,11,01,09,044,17,13,08,158,16,19,03,122,20*4E
$GPRMC,061932.000,A,3540.3052,N,13943.3164,E,0.50,325.85,120106,,,A*63
$GPVTG,325.85,T,,M,0.50,N,0.9,K,A*08
$GPGGA,061933.000,3540.3054,N,13943.3164,E,1,04,6.3,-46.1,M,39.4,M,,0000*4F
$GPGLL,3540.3054,N,13943.3164,E,061933.000,A,A*5B
$GPGSA,A,3,24,07,17,28,,,,,,,,,6.4,6.3,1.0*39
$GPGSV,3,1,11,24,62,315,28,20,61,056,,17,60,323,24,07,45,314,25*71
$GPGSV,3,2,11,28,45,219,27,11,31,071,,04,26,273,,23,23,127,17*7C
$GPGSV,3,3,11,01,09,044,,13,08,158,16,19,03,122,*4A
$GPRMC,061933.000,A,3540.3054,N,13943.3164,E,1.28,14.53,120106,,,A*50
$GPVTG,14.53,T,,M,1.28,N,2.4,K,A*33
$GPGGA,061934.000,3540.3055,N,13943.3172,E,1,04,6.3,-45.7,M,39.4,M,,0000*4B
$GPGLL,3540.3055,N,13943.3172,E,061934.000,A,A*5A
$GPGSA,A,3,24,07,17,28,,,,,,,,,6.4,6.3,1.0*39
$GPGSV,3,1,11,24,62,315,28,20,61,056,,17,60,323,25,07,45,314,25*70
$GPGSV,3,2,11,28,45,219,27,11,31,071,,04,26,273,,23,23,127,17*7C
$GPGSV,3,3,11,01,09,044,,13,08,158,16,19,03,122,*4A
$GPRMC,061934.000,A,3540.3055,N,13943.3172,E,1.32,33.20,120106,,,A*5B
$GPVTG,33.20,T,,M,1.32,N,2.4,K,A*39
$GPGGA,061935.000,3540.3056,N,13943.3169,E,1,04,6.3,-45.5,M,39.4,M,,0000*41
$GPGLL,3540.3056,N,13943.3169,E,061935.000,A,A*52
$GPGSA,A,3,24,07,17,28,,,,,,,,,6.4,6.3,1.0*39
$GPGSV,3,1,11,24,62,315,29,20,61,056,,17,60,323,25,07,45,314,25*71
$GPGSV,3,2,11,28,45,219,27,11,31,071,,04,26,273,,23,23,127,18*73
$GPGSV,3,3,11,01,09,044,15,13,08,158,16,19,03,122,11*4E
$GPRMC,061935.000,A,3540.3056,N,13943.3169,E,0.63,77.30,120106,,,A*57
$GPVTG,77.30,T,,M,0.63,N,1.2,K,A*38
$GPGGA,061936.000,3540.3058,N,13943.3151,E,1,04,6.3,-45.1,M,39.4,M,,0000*43
$GPGLL,3540.3058,N,13943.3151,E,061936.000,A,A*54
$GPGSA,A,3,24,07,17,28,,,,,,,,,6.4,6.3,1.0*39
$GPGSV,3,1,11,24,62,315,29,20,61,056,,17,60,323,25,07,45,314,25*71
$GPGSV,3,2,11,28,45,219,27,11,31,071,,04,26,273,,23,23,127,18*73
$GPGSV,3,3,11,01,09,044,14,13,08,158,17,19,03,122,08*46
$GPRMC,061936.000,A,3540.3058,N,13943.3151,E,0.41,284.59,120106,,,A*60
$GPVTG,284.59,T,,M,0.41,N,0.8,K,A*02
$GPGGA,061937.000,3540.3058,N,13943.3138,E,1,04,6.3,-44.8,M,39.4,M,,0000*45
$GPGLL,3540.3058,N,13943.3138,E,061937.000,A,A*5A
$GPGSA,A,3,24,07,17,28,,,,,,,,,6.4,6.3,1.0*39
$GPGSV,3,1,11,24,62,315,29,20,61,056,,17,60,323,26,07,45,314,25*72
$GPGSV,3,2,11,28,45,219,27,11,31,071,,04,26,273,,23,23,127,18*73
$GPGSV,3,3,11,01,09,044,10,13,08,158,17,19,03,122,*4A
$GPRMC,061937.000,A,3540.3058,N,13943.3138,E,0.92,224.30,120106,,,A*65
$GPVTG,224.30,T,,M,0.92,N,1.7,K,A*07
$GPGGA,061938.000,3540.3061,N,13943.3102,E,1,04,6.3,-44.1,M,39.4,M,,0000*40
$GPGLL,3540.3061,N,13943.3102,E,061938.000,A,A*56
$GPGSA,A,3,24,07,17,28,,,,,,,,,6.4,6.3,1.0*39
$GPGSV,3,1,11,24,62,315,29,20,61,056,,17,60,323,26,07,45,314,25*72
$GPGSV,3,2,11,28,45,219,27,11,31,071,,04,26,273,,23,23,127,18*73
$GPGSV,3,3,11,01,09,044,,13,08,158,17,19,03,122,*4B
$GPRMC,061938.000,A,3540.3061,N,13943.3102,E,1.75,257.85,120106,,,A*6B
$GPVTG,257.85,T,,M,1.75,N,3.2,K,A*02
$GPGGA,061939.000,3540.3060,N,13943.3075,E,1,04,6.3,-43.5,M,39.4,M,,0000*42
$GPGLL,3540.3060,N,13943.3075,E,061939.000,A,A*57
$GPGSA,A,3,24,07,17,28,,,,,,,,,6.4,6.3,1.0*39
$GPGSV,3,1,11,24,62,315,29,20,61,056,,17,60,323,26,07,45,314,25*72
$GPGSV,3,2,11,28,45,219,26,11,31,071,,04,26,273,,23,23,127,18*72
$GPGSV,3,3,11,01,09,044,14,13,08,158,17,19,03,122,*4E
$GPRMC,061939.000,A,3540.3060,N,13943.3075,E,1.41,292.57,120106,,,A*6B
$GPVTG,292.57,T,,M,1.41,N,2.6,K,A*06
$GPGGA,061940.000,3540.3065,N,13943.3046,E,1,04,6.3,-42.9,M,39.4,M,,0000*44
$GPGLL,3540.3065,N,13943.3046,E,061940.000,A,A*5C
$GPGSA,A,3,24,07,17,28,,,,,,,,,6.4,6.3,1.0*39
$GPGSV,3,1,11,24,62,315,30,20,61,056,,17,60,323,26,07,45,314,25*7A
$GPGSV,3,2,11,28,45,219,26,11,31,071,17,04,26,273,,23,23,127,17*7B
$GPGSV,3,3,11,01,09,044,13,13,08,158,17,19,03,122,13*4B
$GPRMC,061940.000,A,3540.3065,N,13943.3046,E,1.98,307.05,120106,,,A*6E
$GPVTG,307.05,T,,M,1.98,N,3.7,K,A*08
$GPGGA,061941.000,3540.3067,N,13943.3023,E,1,04,6.3,-42.4,M,39.4,M,,0000*49
$GPGLL,3540.3067,N,13943.3023,E,061941.000,A,A*5C
$GPGSA,A,3,24,07,17,28,,,,,,,,,6.4,6.3,1.0*39
$GPGSV,3,1,11,24,62,316,30,20,61,056,,17,60,323,25,07,46,314,25*79
$GPGSV,3,2,11,28,44,218,26,11,31,071,,04,26,273,,23,23,127,17*7D
$GPGSV,3,3,11,01,09,044,15,13,08,158,17,19,03,123,21*4D
$GPRMC,061941.000,A,3540.3067,N,13943.3023,E,1.93,280.46,120106,,,A*6C
$GPVTG,280.46,T,,M,1.93,N,3.6,K,A*0B
$GPGGA,061942.000,3540.3068,N,13943.2987,E,1,04,6.3,-41.3,M,39.4,M,,0000*47
$GPGLL,3540.3068,N,13943.2987,E,061942.000,A,A*56
$GPGSA,A,3,24,07,17,28,,,,,,,,,6.4,6.3,1.0*39
$GPGSV,3,1,11,24,62,316,30,20,61,056,,17,60,323,25,07,46,314,25*79
$GPGSV,3,2,11,28,44,218,26,11,31,071,,04,26,273,,23,23,127,09*72
$GPGSV,3,3,11,01,09,044,17,13,08,158,17,19,03,123,21*4F
$GPRMC,061942.000,A,3540.3068,N,13943.2987,E,2.68,265.61,120106,,,A*6F
$GPVTG,265.61,T,,M,2.68,N,5.0,K,A*02
$GPGGA,061943.000,3540.3069,N,13943.2963,E,1,04,6.3,-40.5,M,39.4,M,,0000*4A
$GPGLL,3540.3069,N,13943.2963,E,061943.000,A,A*5C
$GPGSA,A,3,24,07,17,28,,,,,,,,,6.4,6.3,1.0*39
$GPGSV,3,1,11,24,62,316,30,20,61,056,,17,60,323,25,07,46,314,25*79
$GPGSV,3,2,11,28,44,218,26,11,31,071,,04,26,273,,23,23,127,*7B
$GPGSV,3,3,11,01,09,044,17,13,08,158,17,19,03,123,22*4C
$GPRMC,061943.000,A,3540.3069,N,13943.2963,E,2.59,265.54,120106,,,A*61
$GPVTG,265.54,T,,M,2.59,N,4.8,K,A*0F
$GPGGA,061944.000,3540.3068,N,13943.2943,E,1,04,6.3,-39.8,M,39.4,M,,0000*4D
$GPGLL,3540.3068,N,13943.2943,E,061944.000,A,A*58
$GPGSA,A,3,24,07,17,28,,,,,,,,,6.4,6.3,1.0*39
$GPGSV,3,1,11,24,62,316,30,20,61,056,,17,60,323,20,07,46,314,26*7F
$GPGSV,3,2,11,28,44,218,26,11,31,071,,04,26,273,,23,23,127,*7B
$GPGSV,3,3,11,01,09,044,17,13,08,158,17,19,03,123,22*4C
$GPRMC,061944.000,A,3540.3068,N,13943.2943,E,2.52,263.93,120106,,,A*63
$GPVTG,263.93,T,,M,2.52,N,4.7,K,A*06
$GPGGA,061945.000,3540.3070,N,13943.2938,E,1,04,6.3,-39.5,M,39.4,M,,0000*44
$GPGLL,3540.3070,N,13943.2938,E,061945.000,A,A*5C
$GPGSA,A,3,24,07,17,28,,,,,,,,,6.4,6.3,1.0*39
$GPGSV,3,1,11,24,62,316,30,20,61,056,,17,60,323,17,07,46,314,25*78
$GPGSV,3,2,11,28,44,218,25,11,31,071,,04,26,273,,23,23,127,12*7B
$GPGSV,3,3,11,01,09,044,,13,08,158,17,19,03,123,24*4C
$GPRMC,061945.000,A,3540.3070,N,13943.2938,E,1.83,285.90,120106,,,A*63
$GPVTG,285.90,T,,M,1.83,N,3.4,K,A*06
$GPGGA,061946.000,3540.3073,N,13943.2943,E,1,04,6.3,-39.5,M,39.4,M,,0000*48
$GPGLL,3540.3073,N,13943.2943,E,061946.000,A,A*50
$GPGSA,A,3,24,07,17,28,,,,,,,,,6.4,6.3,1.0*39
$GPGSV,3,1,11,24,62,316,30,20,61,056,,17,60,323,14,07,46,314,25*7B
$GPGSV,3,2,11,28,44,218,25,11,31,071,,04,26,273,12,23,23,127,08*73
$GPGSV,3,3,11,01,09,044,24,13,08,158,17,19,03,123,28*46
$GPRMC,061946.000,A,3540.3073,N,13943.2943,E,1.57,341.24,120106,,,A*60
$GPVTG,341.24,T,,M,1.57,N,2.9,K,A*05
$GPGGA,061947.000,3540.3078,N,13943.2959,E,1,04,6.3,-39.8,M,39.4,M,,0000*44
$GPGLL,3540.3078,N,13943.2959,E,061947.000,A,A*51
$GPGSA,A,3,24,07,17,28,,,,,,,,,6.4,6.3,1.0*39
$GPGSV,3,1,11,24,62,316,30,20,61,056,,17,60,323,14,07,46,314,25*7B
$GPGSV,3,2,11,28,44,218,25,11,31,071,,04,26,273,,23,23,127,*78
$GPGSV,3,3,11,01,09,044,25,13,08,158,17,19,03,123,27*48
$GPRMC,061947.000,A,3540.3078,N,13943.2959,E,0.07,106.61,120106,,,A*65
$GPVTG,106.61,T,,M,0.07,N,0.1,K,A*0B
$GPGGA,061948.000,3540.3080,N,13943.2971,E,1,04,6.3,-40.1,M,39.4,M,,0000*41
$GPGLL,3540.3080,N,13943.2971,E,061948.000,A,A*53
$GPGSA,A,3,24,07,17,28,,,,,,,,,6.4,6.3,1.0*39
$GPGSV,3,1,11,24,62,316,30,20,61,056,,17,60,323,14,07,46,314,25*7B
$GPGSV,3,2,11,28,44,218,25,11,31,071,,04,26,273,,23,23,127,*78
$GPGSV,3,3,11,01,09,044,21,13,08,158,17,19,03,123,19*41
$GPRMC,061948.000,A,3540.3080,N,13943.2971,E,0.73,54.26,120106,,,A*51
$GPVTG,54.26,T,,M,0.73,N,1.3,K,A*3E
$GPGGA,061949.000,3540.3082,N,13943.2977,E,1,04,6.3,-40.2,M,39.4,M,,0000*47
$GPGLL,3540.3082,N,13943.2977,E,061949.000,A,A*56
$GPGSA,A,3,24,07,17,28,,,,,,,,,6.4,6.3,1.0*39
$GPGSV,3,1,11,24,62,316,31,20,61,056,,17,60,323,15,07,46,314,25*7B
$GPGSV,3,2,11,28,44,218,25,11,31,071,,04,26,273,,23,23,127,*78
$GPGSV,3,3,11,01,09,044,13,13,08,158,17,19,03,123,20*4A
$GPRMC,061949.000,A,3540.3082,N,13943.2977,E,0.72,61.29,120106,,,A*5C
$GPVTG,61.29,T,,M,0.72,N,1.3,K,A*36
$GPGGA,061950.000,3540.3089,N,13943.2993,E,1,04,6.3,-40.7,M,39.4,M,,0000*4B
$GPGLL,3540.3089,N,13943.2993,E,061950.000,A,A*5F
$GPGSA,A,3,24,07,17,28,,,,,,,,,6.4,6.3,1.0*39
$GPGSV,3,1,11,24,62,316,31,20,61,056,,17,60,323,15,07,46,314,25*7B
$GPGSV,3,2,11,28,44,218,22,11,31,071,,04,26,273,,23,23,127,*7F
$GPGSV,3,3,11,01,09,044,13,13,08,158,17,19,03,123,20*4A
$GPRMC,061950.000,A,3540.3089,N,13943.2993,E,1.76,45.58,120106,,,A*50
$GPVTG,45.58,T,,M,1.76,N,3.3,K,A*31
$GPGGA,061951.000,3540.3094,N,13943.2992,E,1,04,6.3,-40.5,M,39.4,M,,0000*45
$GPGLL,3540.3094,N,13943.2992,E,061951.000,A,A*53
$GPGSA,A,3,24,07,17,28,,,,,,,,,6.4,6.3,1.0*39
$GPGSV,3,1,11,24,62,316,31,20,61,056,,17,60,323,16,07,46,314,25*78
$GPGSV,3,2,11,28,44,218,19,11,31,071,10,04,26,273,,23,23,127,14*73
$GPGSV,3,3,11,01,09,044,14,13,08,158,17,19,03,123,20*4D
$GPRMC,061951.000,A,3540.3094,N,13943.2992,E,1.08,68.66,120106,,,A*57
$GPVTG,68.66,T,,M,1.08,N,2.0,K,A*38
$GPGGA,061952.000,3540.3098,N,13943.2972,E,1,04,6.3,-39.7,M,39.4,M,,0000*48
$GPGLL,3540.3098,N,13943.2972,E,061952.000,A,A*52
$GPGSA,A,3,24,07,17,28,,,,,,,,,6.4,6.3,1.0*39
$GPGSV,3,1,11,24,62,316,31,20,61,056,,17,60,323,16,07,46,314,25*78
$GPGSV,3,2,11,28,44,218,19,11,31,071,07,04,26,273,08,23,23,127,07*7F
$GPGSV,3,3,11,01,09,044,15,13,08,158,17,19,03,123,21*4D
$GPRMC,061952.000,A,3540.3098,N,13943.2972,E,0.42,354.74,120106,,,A*66
$GPVTG,354.74,T,,M,0.42,N,0.8,K,A*02
$GPGGA,061953.000,3540.3103,N,13943.2968,E,1,04,6.3,-39.4,M,39.4,M,,0000*42
$GPGLL,3540.3103,N,13943.2968,E,061953.000,A,A*5B
$GPGSA,A,3,24,07,17,28,,,,,,,,,6.4,6.3,1.0*39
$GPGSV,3,1,11,24,62,316,31,20,61,056,,17,60,323,17,07,46,314,25*79
$GPGSV,3,2,11,28,44,218,19,11,31,071,,04,26,273,07,23,23,127,07*77
$GPGSV,3,3,11,01,09,044,,13,08,158,17,19,03,123,*4A
$GPRMC,061953.000,A,3540.3103,N,13943.2968,E,1.09,356.51,120106,,,A*64
$GPVTG,356.51,T,,M,1.09,N,2.0,K,A*03
$GPGGA,061954.000,3540.3105,N,13943.2967,E,1,03,7.9,-39.3,M,39.4,M,,0000*47
$GPGLL,3540.3105,N,13943.2967,E,061954.000,A,A*55
$GPGSA,A,2,24,07,28,,,,,,,,,,8.0,7.9,1.0*3F
$GPGSV,3,1,11,24,62,316,31,20,61,056,,17,60,323,17,07,46,314,25*79
$GPGSV,3,2,11,28,44,218,18,11,31,071,,04,26,273,,23,23,127,09*7F
$GPGSV,3,3,11,01,09,044,,13,08,158,17,19,03,123,*4A
$GPRMC,061954.000,A,3540.3105,N,13943.2967,E,0.16,18.54,120106,,,A*59
$GPVTG,18.54,T,,M,0.16,N,0.3,K,N*3E
$GPGGA,061955.000,3540.3107,N,13943.2981,E,1,04,6.3,-39.7,M,39.4,M,,0000*44
$GPGLL,3540.3107,N,13943.2981,E,061955.000,A,A*5E
$GPGSA,A,3,24,07,17,28,,,,,,,,,6.4,6.3,1.0*39
$GPGSV,3,1,11,24,62,316,31,20,61,056,,17,60,323,16,07,46,314,25*78
$GPGSV,3,2,11,28,44,218,18,11,31,071,,04,26,273,,23,23,127,10*77
$GPGSV,3,3,11,01,09,044,17,13,08,158,17,19,03,123,*4C
$GPRMC,061955.000,A,3540.3107,N,13943.2981,E,0.41,118.97,120106,,,A*6E
$GPVTG,118.97,T,,M,0.41,N,0.8,K,A*06
$GPGGA,061956.000,3540.3110,N,13943.2991,E,1,04,6.3,-40.0,M,39.4,M,,0000*49
$GPGLL,3540.3110,N,13943.2991,E,061956.000,A,A*5A
$GPGSA,A,3,24,07,17,28,,,,,,,,,6.4,6.3,1.0*39
$GPGSV,3,1,11,24,62,316,31,20,61,056,,17,60,323,16,07,46,314,26*7B
$GPGSV,3,2,11,28,44,218,18,11,31,071,,04,26,273,,23,23,127,10*77
$GPGSV,3,3,11,01,09,044,18,13,08,158,16,19,03,123,20*40
$GPRMC,061956.000,A,3540.3110,N,13943.2991,E,0.42,189.00,120106,,,A*6F
$GPVTG,189.00,T,,M,0.42,N,0.8,K,A*03
$GPGGA,061957.000,3540.3108,N,13943.3007,E,1,03,20.8,-40.7,M,39.4,M,,0000*79
$GPGLL,3540.3108,N,13943.3007,E,061957.000,A,A*55
$GPGSA,A,2,24,07,17,,,,,,,,,,20.8,20.8,1.0*35
$GPGSV,3,1,11,24,62,316,32,20,61,056,,17,60,323,17,07,46,314,26*79
$GPGSV,3,2,11,28,44,218,17,11,31,071,,04,26,273,12,23,23,127,*7A
$GPGSV,3,3,11,01,09,044,18,13,08,158,16,19,03,123,18*4B
$GPRMC,061957.000,A,3540.3108,N,13943.3007,E,0.65,134.59,120106,,,A*6F
$GPVTG,134.59,T,,M,0.65,N,1.2,K,A*07
$GPGGA,061958.000,3540.3109,N,13943.3023,E,1,04,6.3,-41.3,M,39.4,M,,0000*4C
$GPGLL,3540.3109,N,13943.3023,E,061958.000,A,A*5D
$GPGSA,A,3,24,07,17,28,,,,,,,,,6.4,6.3,1.0*39
$GPGSV,3,1,11,24,62,316,32,20,61,056,,17,60,323,18,07,46,314,26*76
$GPGSV,3,2,11,28,44,218,17,11,31,071,,04,26,273,10,23,23,127,*78
$GPGSV,3,3,11,01,09,044,18,13,08,158,16,19,03,123,21*41
$GPRMC,061958.000,A,3540.3109,N,13943.3023,E,0.89,171.66,120106,,,A*68
$GPVTG,171.66,T,,M,0.89,N,1.7,K,A*0D
$GPGGA,061959.000,3540.3103,N,13943.3035,E,1,04,6.3,-42.1,M,39.4,M,,0000*41
$GPGLL,3540.3103,N,13943.3035,E,061959.000,A,A*51
$GPGSA,A,3,24,07,17,28,,,,,,,,,6.4,6.3,1.0*39
$GPGSV,3,1,11,24,62,316,32,20,61,056,,17,60,323,19,07,46,314,26*77
$GPGSV,3,2,11,28,44,218,16,11,31,071,,04,26,273,07,23,23,127,*7F
$GPGSV,3,3,11,01,09,044,17,13,08,158,16,19,03,123,20*4F
$GPRMC,061959.000,A,3540.3103,N,13943.3035,E,3.03,202.21,120106,,,A*61
$GPVTG,202.21,T,,M,3.03,N,5.6,K,A*0D
$GPGGA,062000.000,3540.3099,N,13943.3031,E,1,04,6.3,-42.2,M,39.4,M,,0000*42
$GPGLL,3540.3099,N,13943.3031,E,062000.000,A,A*51
$GPGSA,A,3,24,07,17,28,,,,,,,,,6.4,6.3,1.0*39
$GPGSV,3,1,11,24,62,316,32,20,61,056,,17,60,323,22,07,46,314,26*7F
$GPGSV,3,2,11,28,44,218,16,11,31,071,,04,26,273,,23,23,127,*78
$GPGSV,3,3,11,01,09,044,,13,08,158,16,19,03,123,20*49
$GPRMC,062000.000,A,3540.3099,N,13943.3031,E,3.01,206.94,120106,,,A*69
$GPVTG,206.94,T,,M,3.01,N,5.6,K,A*05
$GPGGA,062001.000,3540.3091,N,13943.3027,E,1,03,21.0,-42.4,M,39.4,M,,0000*7B
$GPGLL,3540.3091,N,13943.3027,E,062001.000,A,A*5F
$GPGSA,A,2,24,07,17,,,,,,,,,,21.0,21.0,1.0*35
$GPGSV,3,1,11,24,62,316,32,20,61,056,,17,60,323,26,07,46,314,27*7A
$GPGSV,3,2,11,28,44,218,16,11,31,071,,04,26,273,,23,23,127,*78
$GPGSV,3,3,11,01,09,044,12,13,08,158,15,19,03,123,20*49
$GPRMC,062001.000,A,3540.3091,N,13943.3027,E,2.98,205.95,120106,,,A*64
$GPVTG,205.95,T,,M,2.98,N,5.5,K,A*05
$GPGGA,062002.000,3540.3087,N,13943.3028,E,1,04,6.3,-42.6,M,39.4,M,,0000*43
$GPGLL,3540.3087,N,13943.3028,E,062002.000,A,A*54
$GPGSA,A,3,24,07,17,28,,,,,,,,,6.4,6.3,1.0*39
$GPGSV,3,1,11,24,62,316,32,20,61,056,,17,60,323,25,07,46,314,27*79
$GPGSV,3,2,11,28,44,218,16,11,31,071,,04,26,273,,23,23,127,*78
$GPGSV,3,3,11,01,09,044,16,13,08,158,15,19,03,123,*4F
$GPRMC,062002.000,A,3540.3087,N,13943.3028,E,2.35,207.67,120106,,,A*67
$GPVTG,207.67,T,,M,2.35,N,4.4,K,A*0D
$GPGGA,062003.000,3540.3090,N,13943.3031,E,1,04,6.3,-42.7,M,39.4,M,,0000*4D
$GPGLL,3540.3090,N,13943.3031,E,062003.000,A,A*5B
$GPGSA,A,3,24,07,17,28,,,,,,,,,6.4,6.3,1.0*39
$GPGSV,3,1,11,24,62,316,32,20,61,056,,17,60,323,24,07,46,314,27*78
$GPGSV,3,2,11,28,44,218,17,11,31,071,,04,26,273,,23,23,127,*79
$GPGSV,3,3,11,01,09,044,17,13,08,158,15,19,03,123,*4E
$GPRMC,062003.000,A,3540.3090,N,13943.3031,E,1.04,218.43,120106,,,A*61
$GPVTG,218.43,T,,M,1.04,N,1.9,K,A*0C
$GPGGA,062004.000,3540.3089,N,13943.3028,E,1,03,21.1,-42.6,M,39.4,M,,0000*7B
$GPGLL,3540.3089,N,13943.3028,E,062004.000,A,A*5C
$GPGSA,A,2,24,07,17,,,,,,,,,,21.1,21.1,1.0*35
$GPGSV,3,1,11,24,62,316,32,20,61,056,,17,60,323,24,07,46,314,27*78
$GPGSV,3,2,11,28,44,218,17,11,31,071,,04,26,273,,23,23,127,*79
$GPGSV,3,3,11,01,09,044,17,13,08,158,15,19,03,123,*4E
$GPRMC,062004.000,A,3540.3089,N,13943.3028,E,0.60,223.51,120106,,,A*6E
$GPVTG,223.51,T,,M,0.60,N,1.1,K,A*0C
$GPGGA,062005.000,3540.3096,N,13943.3027,E,1,04,6.3,-42.4,M,39.4,M,,0000*49
$GPGLL,3540.3096,N,13943.3027,E,062005.000,A,A*5C
$GPGSA,A,3,24,07,17,28,,,,,,,,,6.4,6.3,1.0*39
$GPGSV,3,1,11,24,62,316,32,20,61,056,,17,60,323,30,07,46,314,28*72
$GPGSV,3,2,11,28,44,218,18,11,31,071,,04,26,273,,23,23,127,*76
$GPGSV,3,3,11,01,09,044,18,13,08,158,14,19,03,123,17*46
$GPRMC,062005.000,A,3540.3096,N,13943.3027,E,0.78,217.34,120106,,,A*63
$GPVTG,217.34,T,,M,0.78,N,1.5,K,A*05
$GPGGA,062006.000,3540.3095,N,13943.3012,E,1,03,21.2,-41.7,M,39.4,M,,0000*7C
$GPGLL,3540.3095,N,13943.3012,E,062006.000,A,A*5A
$GPGSA,A,2,24,07,17,,,,,,,,,,21.2,21.2,1.0*35
$GPGSV,3,1,11,24,62,316,32,20,61,056,10,17,60,323,32,07,46,314,28*71
$GPGSV,3,2,11,28,44,218,18,11,31,071,,04,26,273,,23,23,127,*76
$GPGSV,3,3,11,01,09,044,18,13,08,158,14,19,03,123,21*43
$GPRMC,062006.000,A,3540.3095,N,13943.3012,E,0.53,249.25,120106,,,A*67
$GPVTG,249.25,T,,M,0.53,N,1.0,K,A*02
$GPGGA,062007.000,3540.3103,N,13943.3009,E,1,04,6.3,-41.2,M,39.4,M,,0000*4F
$GPGLL,3540.3103,N,13943.3009,E,062007.000,A,A*5F
$GPGSA,A,3,24,07,17,28,,,,,,,,,6.4,6.3,1.0*39
$GPGSV,3,1,11,24,62,316,27,20,61,056,07,17,60,323,32,07,46,314,28*73
$GPGSV,3,2,11,28,44,218,23,11,31,071,,04,26,273,,23,23,127,13*7C
$GPGSV,3,3,11,01,09,044,13,13,08,158,14,19,03,123,20*49
$GPRMC,062007.000,A,3540.3103,N,13943.3009,E,0.33,253.40,120106,,,A*6C
$GPVTG,253.40,T,,M,0.33,N,0.6,K,A*0B
$GPGGA,062008.000,3540.3109,N,13943.3006,E,1,04,6.3,-40.6,M,39.4,M,,0000*40
$GPGLL,3540.3109,N,13943.3006,E,062008.000,A,A*55
$GPGSA,A,3,24,07,17,28,,,,,,,,,6.4,6.3,1.0*39
$GPGSV,3,1,11,24,62,316,26,20,61,056,,17,60,323,32,07,46,314,28*75
$GPGSV,3,2,11,28,44,218,25,11,31,071,,04,26,273,,23,23,127,07*7F
$GPGSV,3,3,11,01,09,044,17,13,08,158,14,19,03,123,21*4C
$GPRMC,062008.000,A,3540.3109,N,13943.3006,E,0.36,224.44,120106,,,A*67
$GPVTG,224.44,T,,M,0.36,N,0.7,K,A*0B
$GPGGA,062009.000,3540.3113,N,13943.3001,E,1,04,6.3,-39.9,M,39.4,M,,0000*4C
$GPGLL,3540.3113,N,13943.3001,E,062009.000,A,A*58
$GPGSA,A,3,24,07,17,28,,,,,,,,,6.4,6.3,1.0*39
$GPGSV,3,1,11,24,62,316,29,20,61,056,,17,60,323,32,07,46,314,28*7A
$GPGSV,3,2,11,28,44,218,23,11,31,071,,04,26,273,,23,23,127,*7E
$GPGSV,3,3,11,01,09,044,16,13,08,158,13,19,03,123,20*4B
$GPRMC,062009.000,A,3540.3113,N,13943.3001,E,1.08,2.43,120106,,,A*67
$GPVTG,2.43,T,,M,1.08,N,2.0,K,A*03
$GPGGA,062010.000,3540.3117,N,13943.2995,E,1,04,6.3,-39.2,M,39.4,M,,0000*4E
$GPGLL,3540.3117,N,13943.2995,E,062010.000,A,A*51
$GPGSA,A,3,24,07,17,28,,,,,,,,,6.4,6.3,1.0*39
$GPGSV,3,1,11,24,62,316,29,20,61,056,,17,60,323,32,07,46,314,29*7B
$GPGSV,3,2,11,28,44,218,22,11,31,071,10,04,26,273,,23,23,127,*7E
$GPGSV,3,3,11,01,09,044,16,13,08,158,13,19,03,123,20*4B
$GPRMC,062010.000,A,3540.3117,N,13943.2995,E,0.92,9.45,120106,,,A*61
$GPVTG,9.45,T,,M,0.92,N,1.7,K,A*08
$GPGGA,062011.000,3540.3117,N,13943.2987,E,1,04,6.3,-38.5,M,39.4,M,,0000*4A
$GPGLL,3540.3117,N,13943.2987,E,062011.000,A,A*53
$GPGSA,A,3,24,07,17,28,,,,,,,,,6.4,6.3,1.0*39
$GPGSV,3,1,11,24,62,316,30,20,61,056,,17,60,323,32,07,46,314,29*73
$GPGSV,3,2,11,28,44,218,22,11,31,071,,04,26,273,,23,23,127,*7F
$GPGSV,3,3,11,01,09,044,15,13,08,158,14,19,03,123,*4D
$GPRMC,062011.000,A,3540.3117,N,13943.2987,E,0.85,221.60,120106,,,A*6A
$GPVTG,221.60,T,,M,0.85,N,1.6,K,A*00
$GPGGA,062012.000,3540.3116,N,13943.2977,E,1,04,6.3,-37.7,M,39.4,M,,0000*4A
$GPGLL,3540.3116,N,13943.2977,E,062012.000,A,A*5E
$GPGSA,A,3,24,07,17,28,,,,,,,,,6.4,6.3,1.0*39
$GPGSV,3,1,11,24,62,316,30,20,61,056,,17,60,323,32,07,46,314,29*73
$GPGSV,3,2,11,28,44,218,21,11,31,071,,04,26,273,,23,23,127,*7C
$GPGSV,3,3,11,01,09,044,15,13,08,158,14,19,03,123,*4D
$GPRMC,062012.000,A,3540.3116,N,13943.2977,E,0.99,219.07,120106,,,A*60
$GPVTG,219.07,T,,M,0.99,N,1.8,K,A*09
$GPGGA,062013.000,3540.3113,N,13943.2967,E,1,04,6.3,-36.8,M,39.4,M,,0000*41
$GPGLL,3540.3113,N,13943.2967,E,062013.000,A,A*5B
$GPGSA,A,3,24,07,17,28,,,,,,,,,6.4,6.3,1.0*39
$GPGSV,3,1,11,24,62,316,30,20,61,056,,17,60,323,32,07,46,314,29*73
$GPGSV,3,2,11,28,44,218,21,11,31,071,,04,26,273,,23,23,127,12*7F
$GPGSV,3,3,11,01,09,044,,13,08,158,14,19,03,123,*49
$GPRMC,062013.000,A,3540.3113,N,13943.2967,E,2.04,210.70,120106,,,A*6A
$GPVTG,210.70,T,,M,2.04,N,3.8,K,A*04
$GPGGA,062014.000,3540.3115,N,13943.2961,E,1,04,6.3,-36.0,M,39.4,M,,0000*4E
$GPGLL,3540.3115,N,13943.2961,E,062014.000,A,A*5C
$GPGSA,A,3,24,07,17,28,,,,,,,,,6.4,6.3,1.0*39
$GPGSV,3,1,11,24,62,316,31,20,61,056,,17,60,323,32,07,46,314,29*72
$GPGSV,3,2,11,28,44,218,21,11,31,071,,04,26,273,,23,23,127,08*74
$GPGSV,3,3,11,01,09,044,11,13,08,158,14,19,03,123,*49
$GPRMC,062014.000,A,3540.3115,N,13943.2961,E,0.45,232.26,120106,,,A*69
$GPVTG,232.26,T,,M,0.45,N,0.8,K,A*03
$GPGGA,062015.000,3540.3117,N,13943.2956,E,1,04,6.3,-35.1,M,39.4,M,,0000*4B
$GPGLL,3540.3117,N,13943.2956,E,062015.000,A,A*5B
$GPGSA,A,3,24,07,17,28,,,,,,,,,6.4,6.3,1.0*39
$GPGSV,3,1,11,24,62,316,31,20,61,056,,17,60,323,32,07,46,314,30*7A
$GPGSV,3,2,11,28,44,218,21,11,31,071,,04,26,273,,23,23,127,11*7C
$GPGSV,3,3,11,01,09,044,13,13,08,158,13,19,03,123,19*44
$GPRMC,062015.000,A,3540.3117,N,13943.2956,E,0.35,223.98,120106,,,A*6C
$GPVTG,223.98,T,,M,0.35,N,0.6,K,A*0F
$GPGGA,062016.000,3540.3118,N,13943.2950,E,1,04,6.3,-34.2,M,39.4,M,,0000*43
$GPGLL,3540.3118,N,13943.2950,E,062016.000,A,A*51
$GPGSA,A,3,24,07,17,28,,,,,,,,,6.4,6.3,1.0*39
$GPGSV,3,1,11,24,62,316,31,20,61,056,,17,60,323,32,07,46,314,30*7A
$GPGSV,3,2,11,28,44,218,21,11,31,071,,04,26,273,,23,23,127,07*7B
$GPGSV,3,3,11,01,09,044,15,13,08,158,14,19,03,123,18*44
$GPRMC,062016.000,A,3540.3118,N,13943.2950,E,0.90,206.07,120106,,,A*68
$GPVTG,206.07,T,,M,0.90,N,1.7,K,A*01
$GPGGA,062017.000,3540.3129,N,13943.2954,E,1,04,6.3,-33.2,M,39.4,M,,0000*43
$GPGLL,3540.3129,N,13943.2954,E,062017.000,A,A*56
$GPGSA,A,3,24,07,17,28,,,,,,,,,6.4,6.3,1.0*39
$GPGSV,3,1,11,24,62,316,31,20,61,056,,17,60,323,32,07,46,314,29*72
$GPGSV,3,2,11,28,44,218,21,11,31,071,,04,26,273,,23,23,127,*7C
$GPGSV,3,3,11,01,09,044,,13,08,158,14,19,03,123,18*40
$GPRMC,062017.000,A,3540.3129,N,13943.2954,E,0.41,160.62,120106,,,A*63
$GPVTG,160.62,T,,M,0.41,N,0.8,K,A*03
$GPGGA,062018.000,3540.3136,N,13943.2953,E,1,04,6.3,-32.2,M,39.4,M,,0000*44
$GPGLL,3540.3136,N,13943.2953,E,062018.000,A,A*50
$GPGSA,A,3,24,07,17,28,,,,,,,,,6.4,6.3,1.0*39
$GPGSV,3,1,11,24,62,316,31,20,61,056,,17,60,323,26,07,46,314,24*7A
$GPGSV,3,2,11,28,44,218,22,11,31,071,,04,26,273,,23,23,127,*7F
$GPGSV,3,3,11,01,09,044,11,13,08,158,14,19,03,123,18*40
$GPRMC,062018.000,A,3540.3136,N,13943.2953,E,0.58,221.47,120106,,,A*6C
$GPVTG,221.47,T,,M,0.58,N,1.1,K,A*02
$GPGGA,062019.000,3540.3144,N,13943.2958,E,1,04,6.3,-31.6,M,39.4,M,,0000*4C
$GPGLL,3540.3144,N,13943.2958,E,062019.000,A,A*5F
$GPGSA,A,3,24,07,17,28,,,,,,,,,6.4,6.3,1.0*39
$GPGSV,3,1,11,24,62,316,31,20,61,056,,17,60,323,28,07,46,314,25*75
$GPGSV,3,2,11,28,44,218,22,11,31,071,,04,26,273,15,23,23,127,*7B
$GPGSV,3,3,11,01,09,044,15,13,08,158,14,19,03,123,18*44
$GPRMC,062019.000,A,3540.3144,N,13943.2958,E,0.24,297.15,120106,,,A*62
$GPVTG,297.15,T,,M,0.24,N,0.4,K,A*07
$GPGGA,062020.000,3540.3148,N,13943.2960,E,1,04,6.3,-30.8,M,39.4,M,,0000*4E
$GPGLL,3540.3148,N,13943.2960,E,062020.000,A,A*52
$GPGSA,A,3,24,07,17,28,,,,,,,,,6.3,6.3,1.0*3E
$GPGSV,3,1,11,24,62,316,31,20,61,056,,17,60,323,30,07,46,314,26*7F
$GPGSV,3,2,11,28,44,218,22,11,31,071,,04,26,273,08,23,23,127,*77
$GPGSV,3,3,11,01,09,044,,13,08,158,14,19,03,123,*49
$GPRMC,062020.000,A,3540.3148,N,13943.2960,E,0.55,198.20,120106,,,A*63
$GPVTG,198.20,T,,M,0.55,N,1.0,K,A*0E
$GPGGA,062021.000,3540.3144,N,13943.2955,E,1,04,6.3,-30.2,M,39.4,M,,0000*4F
$GPGLL,3540.3144,N,13943.2955,E,062021.000,A,A*59
$GPGSA,A,3,24,07,17,28,,,,,,,,,6.3,6.3,1.0*3E
$GPGSV,3,1,11,24,62,316,31,20,61,056,,17,60,323,30,07,46,314,27*7E
$GPGSV,3,2,11,28,44,218,22,11,31,071,16,04,26,273,,23,23,127,*78
$GPGSV,3,3,11,01,09,044,,13,08,158,14,19,03,123,20*4B
$GPRMC,062021.000,A,3540.3144,N,13943.2955,E,0.30,204.38,120106,,,A*64
$GPVTG,204.38,T,,M,0.30,N,0.6,K,A*05
$GPGGA,062022.000,3540.3138,N,13943.2949,E,1,04,6.3,-29.5,M,39.4,M,,0000*45
$GPGLL,3540.3138,N,13943.2949,E,062022.000,A,A*5C
$GPGSA,A,3,24,07,17,28,,,,,,,,,6.3,6.3,1.0*3E
$GPGSV,3,1,11,24,62,316,31,20,61,056,,17,60,323,30,07,46,314,28*71
$GPGSV,3,2,11,28,44,218,24,11,31,071,16,04,26,273,,23,23,127,*7E
$GPGSV,3,3,11,01,09,044,,13,08,158,14,19,03,123,09*40
$GPRMC,062022.000,A,3540.3138,N,13943.2949,E,0.39,196.62,120106,,,A*6F
$GPVTG,196.62,T,,M,0.39,N,0.7,K,A*0A
$GPGGA,062023.000,3540.3134,N,13943.2943,E,1,04,6.3,-28.8,M,39.4,M,,0000*4E
$GPGLL,3540.3134,N,13943.2943,E,062023.000,A,A*5B
$GPGSA,A,3,24,07,17,28,,,,,,,,,6.3,6.3,1.0*3E
$GPGSV,3,1,11,24,62,316,32,20,61,056,,17,60,323,30,07,46,314,28*72
$GPGSV,3,2,11,28,44,218,27,11,31,071,15,04,26,273,,23,23,127,*7E
$GPGSV,3,3,11,01,09,044,15,13,08,158,13,19,03,123,12*49
$GPRMC,062023.000,A,3540.3134,N,13943.2943,E,0.50,6.29,120106,,,A*60
$GPVTG,6.29,T,,M,0.50,N,0.9,K,A*0C
$GPGGA,062024.000,3540.3133,N,13943.3069,E,1,05,2.0,-42.4,M,39.4,M,,0000*48
$GPGLL,3540.3133,N,13943.3069,E,062024.000,A,A*5B
$GPGSA,A,3,24,11,07,17,28,,,,,,,,5.9,2.0,5.5*31
$GPGSV,3,1,11,24,62,316,32,20,61,056,08,17,60,323,33,07,46,314,28*79
$GPGSV,3,2,11,28,44,218,26,11,31,071,14,04,26,273,,23,23,127,*7E
$GPGSV,3,3,11,01,09,044,,13,08,158,14,19,03,123,16*4E
$GPRMC,062024.000,A,3540.3133,N,13943.3069,E,1.97,47.38,120106,,,A*5F
$GPVTG,47.38,T,,M,1.97,N,3.6,K,A*3F
$GPGGA,062025.000,3540.3131,N,13943.3095,E,1,05,2.0,-43.0,M,39.4,M,,0000*4D
$GPGLL,3540.3131,N,13943.3095,E,062025.000,A,A*5B
$GPGSA,A,3,24,11,07,17,28,,,,,,,,5.9,2.0,5.5*31
$GPGSV,3,1,11,24,62,316,31,20,61,056,,17,60,323,35,07,46,314,23*7F
$GPGSV,3,2,11,28,44,218,26,11,31,071,13,04,26,273,,23,23,127,*79
$GPGSV,3,3,11,01,09,044,16,13,08,158,14,19,03,123,18*47
$GPRMC,062025.000,A,3540.3131,N,13943.3095,E,3.98,73.12,120106,,,A*5D
$GPVTG,73.12,T,,M,3.98,N,7.4,K,A*3B
$GPGGA,062026.000,3540.3134,N,13943.3097,E,1,05,2.0,-42.5,M,39.4,M,,0000*4D
$GPGLL,3540.3134,N,13943.3097,E,062026.000,A,A*5F
$GPGSA,A,3,24,11,07,17,28,,,,,,,,5.9,2.0,5.5*31
$GPGSV,3,1,11,24,62,316,30,20,61,056,,17,60,323,35,07,46,314,23*7E
$GPGSV,3,2,11,28,44,218,29,11,31,071,13,04,26,273,09,23,23,127,*7F
$GPGSV,3,3,11,01,09,044,18,13,08,158,13,19,03,123,18*4E
$GPRMC,062026.000,A,3540.3134,N,13943.3097,E,4.34,61.52,120106,,,A*5F
$GPVTG,61.52,T,,M,4.34,N,8.0,K,A*36
$GPGGA,062027.000,3540.3138,N,13943.3113,E,1,05,2.0,-44.2,M,39.4,M,,0000*4C
$GPGLL,3540.3138,N,13943.3113,E,062027.000,A,A*5F
$GPGSA,A,3,24,11,07,17,28,,,,,,,,5.9,2.0,5.5*31
$GPGSV,3,1,11,24,62,316,29,20,61,056,,17,60,323,31,07,46,314,23*72
$GPGSV,3,2,11,28,44,218,30,11,31,071,13,04,26,273,11,23,23,127,*7E
$GPGSV,3,3,11,01,09,044,18,13,08,158,13,19,03,123,*47
$GPRMC,062027.000,A,3540.3138,N,13943.3113,E,4.54,63.79,120106,,,A*52
$GPVTG,63.79,T,,M,4.54,N,8.4,K,A*3F
$GPGGA,062028.000,3540.3140,N,13943.3126,E,1,04,6.3,-44.8,M,39.4,M,,0000*46
$GPGLL,3540.3140,N,13943.3126,E,062028.000,A,A*59
$GPGSA,A,3,24,07,17,28,,,,,,,,,6.3,6.3,1.0*3E
$GPGSV,3,1,11,24,62,316,31,20,61,056,13,17,60,323,30,07,46,314,24*7F
$GPGSV,3,2,11,28,44,218,28,11,31,071,12,04,26,273,10,23,23,127,*77
$GPGSV,3,3,11,01,09,044,18,13,08,158,14,19,03,123,21*43
$GPRMC,062028.000,A,3540.3140,N,13943.3126,E,4.00,64.96,120106,,,A*53
$GPVTG,64.96,T,,M,4.00,N,7.4,K,A*37
$GPGGA,062029.000,3540.3143,N,13943.3137,E,1,04,6.3,-45.3,M,39.4,M,,0000*4E
$GPGLL,3540.3143,N,13943.3137,E,062029.000,A,A*5B
$GPGSA,A,3,24,07,17,28,,,,,,,,,6.3,6.3,1.0*3E
$GPGSV,3,1,11,24,62,316,31,20,61,056,11,17,60,323,32,07,46,314,24*7F
$GPGSV,3,2,11,28,44,218,27,11,31,071,,04,26,273,,23,23,127,16*7D
$GPGSV,3,3,11,01,09,044,18,13,08,158,14,19,03,123,*40
$GPRMC,062029.000,A,3540.3143,N,13943.3137,E,3.86,64.88,120106,,,A*57
$GPVTG,64.88,T,,M,3.86,N,7.1,K,A*34
$GPGGA,062030.000,3540.3147,N,13943.3163,E,1,05,2.3,-44.7,M,39.4,M,,0000*43
$GPGLL,3540.3147,N,13943.3163,E,062030.000,A,A*56
$GPGSA,A,3,24,07,17,28,20,,,,,,,,8.3,2.3,8.0*3F
$GPGSV,3,1,11,24,62,316,31,20,61,056,18,17,60,323,28,07,46,314,24*7D
$GPGSV,3,2,11,28,44,218,27,11,31,071,,04,26,273,11,23,23,127,16*7D
$GPGSV,3,3,11,01,09,044,,13,08,158,14,19,03,123,*49
$GPRMC,062030.000,A,3540.3147,N,13943.3163,E,2.26,37.51,120106,,,A*53
$GPVTG,37.51,T,,M,2.26,N,4.2,K,A*3D
$GPGGA,062031.000,3540.3149,N,13943.3181,E,1,05,2.3,-43.0,M,39.4,M,,0000*40
$GPGLL,3540.3149,N,13943.3181,E,062031.000,A,A*55
$GPGSA,A,3,24,07,17,28,20,,,,,,,,8.3,2.3,8.0*3F
$GPGSV,3,1,11,24,62,316,31,20,61,056,26,17,60,323,29,07,46,314,24*71
$GPGSV,3,2,11,28,44,218,27,11,31,071,,04,26,273,13,23,23,127,19*70
$GPGSV,3,3,11,01,09,044,,13,08,158,14,19,03,123,*49
$GPRMC,062031.000,A,3540.3149,N,13943.3181,E,2.18,40.60,120106,,,A*5F
$GPVTG,40.60,T,,M,2.18,N,4.0,K,A*30
$GPGGA,062032.000,3540.3151,N,13943.3191,E,1,04,12.3,-41.4,M,39.4,M,,0000*7D
$GPGLL,3540.3151,N,13943.3191,E,062032.000,A,A*5E
$GPGSA,A,3,24,07,17,20,,,,,,,,,12.3,12.3,1.0*36
$GPGSV,3,1,11,24,62,316,31,20,61,056,25,17,60,323,32,07,46,314,24*78
$GPGSV,3,2,11,28,44,218,25,11,31,071,,04,26,273,17,23,23,127,20*7C
$GPGSV,3,3,11,01,09,044,18,13,08,158,14,19,03,123,22*40
$GPRMC,062032.000,A,3540.3151,N,13943.3191,E,1.36,9.45,120106,,,A*61
$GPVTG,9.45,T,,M,1.36,N,2.5,K,A*06
$GPGGA,062033.000,3540.3155,N,13943.3196,E,1,04,12.3,-39.0,M,39.4,M,,0000*74
$GPGLL,3540.3155,N,13943.3196,E,062033.000,A,A*5C
$GPGSA,A,3,24,07,17,20,,,,,,,,,12.3,12.3,1.0*36
$GPGSV,3,1,11,24,62,316,32,20,61,056,32,17,60,323,31,07,46,314,25*7F
$GPGSV,3,2,11,28,44,218,11,11,31,071,09,04,26,273,18,23,23,127,19*77
$GPGSV,3,3,11,01,09,044,16,13,08,158,14,19,03,123,*4E
$GPRMC,062033.000,A,3540.3155,N,13943.3196,E,2.54,348.98,120106,,,A*62
$GPVTG,348.98,T,,M,2.54,N,4.7,K,A*03
$GPGGA,062034.000,3540.3167,N,13943.3194,E,1,05,2.3,-37.0,M,39.4,M,,0000*4E
$GPGLL,3540.3167,N,13943.3194,E,062034.000,A,A*58
$GPGSA,A,3,24,07,17,28,20,,,,,,,,8.3,2.3,8.0*3F
$GPGSV,3,1,11,24,62,316,32,20,61,056,34,17,60,323,31,07,46,314,30*7D
$GPGSV,3,2,11,28,44,218,11,11,31,071,,04,26,273,19,23,23,127,18*7E
$GPGSV,3,3,11,01,09,044,16,13,08,158,14,19,03,123,21*4D
$GPRMC,062034.000,A,3540.3167,N,13943.3194,E,2.54,336.03,120106,,,A*6D
$GPVTG,336.03,T,,M,2.54,N,4.7,K,A*08
$GPGGA,062035.000,3540.3168,N,13943.3194,E,1,05,5.1,-34.6,M,39.4,M,,0000*40
$GPGLL,3540.3168,N,13943.3194,E,062035.000,A,A*56
$GPGSA,A,3,24,04,07,17,20,,,,,,,,7.9,5.1,6.0*3F
$GPGSV,3,1,11,24,62,316,32,20,61,056,34,17,60,323,31,07,46,314,34*79
$GPGSV,3,2,11,28,44,218,14,11,31,071,,04,26,273,22,23,23,127,18*73
$GPGSV,3,3,11,01,09,044,17,13,08,158,14,19,03,123,22*4F
$GPRMC,062035.000,A,3540.3168,N,13943.3194,E,2.39,304.93,120106,,,A*60
$GPVTG,304.93,T,,M,2.39,N,4.4,K,A*08
$GPGGA,062036.000,3540.3166,N,13943.3200,E,1,05,5.1,-29.3,M,39.4,M,,0000*4A
$GPGLL,3540.3166,N,13943.3200,E,062036.000,A,A*55
$GPGSA,A,3,24,04,07,17,20,,,,,,,,7.9,5.1,6.0*3F
$GPGSV,3,1,11,24,62,316,32,20,61,056,34,17,60,323,31,07,46,314,34*79
$GPGSV,3,2,11,28,44,218,15,11,31,071,,04,26,273,30,23,23,127,18*71
$GPGSV,3,3,11,01,09,044,17,13,08,158,15,19,03,123,21*4D
$GPRMC,062036.000,A,3540.3166,N,13943.3200,E,2.58,277.68,120106,,,A*65
$GPVTG,277.68,T,,M,2.58,N,4.8,K,A*02
$GPGGA,062037.000,3540.3159,N,13943.3200,E,1,05,5.1,-24.5,M,39.4,M,,0000*4C
$GPGLL,3540.3159,N,13943.3200,E,062037.000,A,A*58
$GPGSA,A,3,24,04,07,17,20,,,,,,,,7.9,5.1,6.0*3F
$GPGSV,3,1,11,24,62,316,32,20,61,056,35,17,60,323,31,07,46,314,34*78
$GPGSV,3,2,11,28,44,218,15,11,31,071,,04,26,273,30,23,23,127,18*71
$GPGSV,3,3,11,01,09,044,,13,08,158,15,19,03,123,21*4B
$GPRMC,062037.000,A,3540.3159,N,13943.3200,E,2.61,273.60,120106,,,A*6E
$GPVTG,273.60,T,,M,2.61,N,4.8,K,A*04
$GPGGA,062038.000,3540.3152,N,13943.3184,E,1,06,3.0,-19.9,M,39.4,M,,0000*41
$GPGLL,3540.3152,N,13943.3184,E,062038.000,A,A*53
$GPGSA,A,3,24,04,01,07,17,20,,,,,,,3.4,3.0,1.6*31
$GPGSV,3,1,11,24,62,316,32,20,61,056,29,17,60,323,31,07,46,314,35*74
$GPGSV,3,2,11,28,44,218,14,11,31,071,,04,26,273,31,23,23,127,18*71
$GPGSV,3,3,11,01,09,044,24,13,08,158,15,19,03,123,21*4D
$GPRMC,062038.000,A,3540.3152,N,13943.3184,E,3.43,237.84,120106,,,A*6E
$GPVTG,237.84,T,,M,3.43,N,6.4,K,A*01
$GPGGA,062039.000,3540.3145,N,13943.3173,E,1,06,3.0,-14.6,M,39.4,M,,0000*4C
$GPGLL,3540.3145,N,13943.3173,E,062039.000,A,A*5C
$GPGSA,A,3,24,04,01,07,17,20,,,,,,,3.4,3.0,1.6*31
$GPGSV,3,1,11,24,62,316,32,20,61,056,32,17,60,323,31,07,46,314,35*7E
$GPGSV,3,2,11,28,44,218,14,11,31,071,,04,26,273,31,23,23,127,17*7E
$GPGSV,3,3,11,01,09,044,25,13,08,158,15,19,03,123,*4F
$GPRMC,062039.000,A,3540.3145,N,13943.3173,E,3.90,236.42,120106,,,A*64
$GPVTG,236.42,T,,M,3.90,N,7.2,K,A*03
$GPGGA,062040.000,3540.3145,N,13943.3159,E,1,07,1.5,-11.3,M,39.4,M,,0000*4C
$GPGLL,3540.3145,N,13943.3159,E,062040.000,A,A*5A
$GPGSA,A,3,24,04,01,07,17,28,20,,,,,,2.1,1.5,1.6*38
$GPGSV,3,1,11,24,62,316,32,20,61,056,33,17,60,323,31,07,46,314,35*7F
$GPGSV,3,2,11,28,44,218,14,11,31,071,,04,26,273,32,23,23,127,17*7D
$GPGSV,3,3,11,01,09,044,26,13,08,158,14,19,03,123,19*45
$GPRMC,062040.000,A,3540.3145,N,13943.3159,E,4.14,234.14,120106,,,A*68
$GPVTG,234.14,T,,M,4.14,N,7.7,K,A*0C
$GPGGA,062041.000,3540.3140,N,13943.3145,E,1,07,1.5,-7.5,M,39.4,M,,0000*74
$GPGLL,3540.3140,N,13943.3145,E,062041.000,A,A*53
$GPGSA,A,3,24,04,01,07,17,28,20,,,,,,2.1,1.5,1.6*38
$GPGSV,3,1,11,24,62,316,32,20,61,056,32,17,60,323,30,07,46,314,35*7F
$GPGSV,3,2,11,28,44,218,13,11,31,071,10,04,26,273,32,23,23,127,17*7B
$GPGSV,3,3,11,01,09,044,25,13,08,158,14,19,03,123,18*47
$GPRMC,062041.000,A,3540.3140,N,13943.3145,E,4.28,231.12,120106,,,A*6D
$GPVTG,231.12,T,,M,4.28,N,7.9,K,A*0E
$GPGGA,062042.000,3540.3136,N,13943.3129,E,1,07,1.5,-4.2,M,39.4,M,,0000*78
$GPGLL,3540.3136,N,13943.3129,E,062042.000,A,A*5B
